{
     "RO_Details": [
        {
            "Roname": "NAGERCOIL MADURAI",
            "State": "Tamil Nadu",
            "City": "NAGERCOIL",
            "Roaddress1": "4/4A Main Road, Vellamadam, ",
            "latitude": "8.21",
            "longitude": "77.4594444440",
            "Ropincode": "629305",
            "Rocode": "TNF062",
            "Roid": "6767",
            "Territory": "KANYA-KUMARI"
        },
        {
            "Roname": "MARTHANDAM",
            "State": "Tamil Nadu",
            "City": "",
            "Roaddress1": "14-35A, Chenkanmoolai Main Road, Kuzhithurai, ",
            "latitude": "8.3174660340",
            "longitude": "77.2004385560",
            "Ropincode": "629163",
            "Rocode": "TNF068",
            "Roid": "6223",
            "Territory": "KANYA-KUMARI"
        },
        {
            "Roname": "KHOPOLI MUMBAI",
            "State": "Maharashtra",
            "City": "",
            "Roaddress1": "SURVEY NO.77-2, 77-3 77/7 AND 77-8, VILLAGE HAL BUDRUK VILLAGE KHOPOLI TALUKA KHALAPUR, DIST RAIGAD 410203",
            "latitude": "18.8101389740",
            "longitude": "73.3144937170",
            "Ropincode": "410203",
            "Rocode": "MHF114",
            "Roid": "6733",
            "Territory": "RAIGAD"
        },
        {
            "Roname": "MANCHERIAL HYDERABAD",
            "State": "Telangana",
            "City": "",
            "Roaddress1": "SY.NO.477/19 and 477/20, GARMILLA VILLAGE, HIGHWAY ROAD, MANCHERIAL MANDAL, MANCHERIAL TOWN, ADILABAD DISTRICT. ANDHRA PRADESH  502284",
            "latitude": "18.87532453",
            "longitude": "79.4213190230",
            "Ropincode": "502284",
            "Rocode": "APF037",
            "Roid": "6385",
            "Territory": "ADILABAD"
        },
        {
            "Roname": "Baroda HT Road",
            "State": "Gujarat",
            "City": "",
            "Roaddress1": "NEAR SUBHANPURA ATITHI GROUP, HT ROAD, SUBHANPURA  DISTT-BARODA",
            "latitude": "22.3219444440",
            "longitude": "73.1555555560",
            "Ropincode": "390021",
            "Rocode": "GJC134",
            "Roid": "1315",
            "Territory": "Vadodara"
        },
        {
            "Roname": "RANCHI HEC",
            "State": "Jharkhand",
            "City": "",
            "Roaddress1": "NEAR CHECK POST, SECTOR 2, HEC COLONY, POST DHURWA",
            "latitude": "23.322750",
            "longitude": "85.304861",
            "Ropincode": "834002",
            "Rocode": "JHC002",
            "Roid": "1546",
            "Territory": "Ranchi"
        },
        {
            "Roname": "BAHARAGORA FF",
            "State": "Jharkhand",
            "City": "Tehsil-Dalbhum,Purbi Sinsgbhum,",
            "Roaddress1": "PLOT NO 10, KHATA NO  32, NH-33,  VILLAGE BELA, PO  PS - BAH TEHSIL - DALBHUM, DIST PURBI SINSGB",
            "latitude": "22.255028",
            "longitude": "86.7210",
            "Ropincode": "831012",
            "Rocode": "JHF016",
            "Roid": "1195",
            "Territory": "SINGHBHUM EAST"
        },
        {
            "Roname": "KULLAN HISSAR",
            "State": "Haryana",
            "City": "",
            "Roaddress1": "GARG PETRO CITY,MDR-102, VILLAGE DHARSUL, JAKHAL ROAD, KULLAN TEHSIL TOHANA DISTT. FATEHBAD HARYANA 125106",
            "latitude": "29.6649091930",
            "longitude": "75.72374106",
            "Ropincode": "125106",
            "Rocode": "HRF098",
            "Roid": "6445",
            "Territory": "Fatehabad"
        },
        {
            "Roname": "KARMALA PUNE",
            "State": "Maharashtra",
            "City": "",
            "Roaddress1": "SURVEY NO 113, BHAWANI CHOWK",
            "latitude": "18.4052777780",
            "longitude": "75.2040833330",
            "Ropincode": "413203",
            "Rocode": "MHF116",
            "Roid": "7055",
            "Territory": "SHOLAPUR"
        },
        {
            "Roname": "SAGAR MANGALORE",
            "State": "Karnataka",
            "City": "",
            "Roaddress1": "NO: 248/248/1175, 247/247/1174, NEW B.H.ROAD, NIRKODU EXTENSION,SAGAR TALUK,SAGAR - 577401",
            "latitude": "13.9332797890",
            "longitude": "75.5516269350",
            "Ropincode": "577401",
            "Rocode": "KRF033",
            "Roid": "6887",
            "Territory": "Shimoga"
        },
        {
            "Roname": "PBF088-TARN TARAN JALLANDHAR",
            "State": "Punjab",
            "City": "TARN TARAN",
            "Roaddress1": "NH-15,RHS TARANTARAN-ASR. ROAD,MS-125,NEAR SATSANG BHAWANandDHILLON RESORTS,VILL-THATI,AMRITSAR  ",
            "latitude": "31.4837777780",
            "longitude": "74.9064166670",
            "Ropincode": "143401",
            "Rocode": "PBF088",
            "Roid": "6575",
            "Territory": "Amritsar"
        },
        {
            "Roname": "AJNALA",
            "State": "Punjab",
            "City": "AJNALA KHE",
            "Roaddress1": "VILL ROKHE, PO-UGGARAULAKH, TEHSIL-AJNALA, DISTT-AMRITSAR  ",
            "latitude": "31.8104444440",
            "longitude": "74.7690277780",
            "Ropincode": "143102",
            "Rocode": "PBF099",
            "Roid": "1171",
            "Territory": "Amritsar"
        },
        {
            "Roname": "OJHAR NASIK",
            "State": "Maharashtra",
            "City": "",
            "Roaddress1": "V R AUTO SERVICES , OPP.,  PANCHWAD NAGAR PLOT NO 1 MUMBAI AGRA ROAD NH3 OZHAR MIG. DIST NASHIK  422206",
            "latitude": "20.0822450260",
            "longitude": "73.9157866730",
            "Ropincode": "422206",
            "Rocode": "MHF085",
            "Roid": "6952",
            "Territory": "Nashik"
        },
        {
            "Roname": "ULUNDURPET FF",
            "State": "Tamil Nadu",
            "City": "",
            "Roaddress1": "# 354, NH-45, PADUR VILLAGE,NEAR PARI HOTEL,  ULUNDURPET  606 115 ,DISTRICT : VILLUPURAM , TN",
            "latitude": "11.7283946290",
            "longitude": "79.3491273650",
            "Ropincode": "606107",
            "Rocode": "TNF066",
            "Roid": "1057",
            "Territory": "VILUPPURAM"
        },
        {
            "Roname": "Bahadurgarh",
            "State": "Haryana",
            "City": "Jhajjar",
            "Roaddress1": "Bahadurgarh Jhajjar road, Near village Nuna Majra, Tehsil Bahadurgarh, Distt. Jhajjar. Haryana-124507",
            "latitude": "28.67578688",
            "longitude": "76.8921532830",
            "Ropincode": "124507",
            "Rocode": "HRF102",
            "Roid": "7190",
            "Territory": "Jhajjar"
        },
        {
            "Roname": "GONDIA",
            "State": "Maharashtra",
            "City": "",
            "Roaddress1": "FULCHAR NAKA COLLECTOR OFFICE ROAD, AMGAON ROAD GONDIA  S.NO.12/2, VILL CHIKHALGAON, TALUKA  - WANI DIST . - YAVATMAL (MH) 441601",
            "latitude": "21.44406597",
            "longitude": "80.2032494350",
            "Ropincode": "441601",
            "Rocode": "MHF063",
            "Roid": "6236",
            "Territory": "Gondia"
        },
        {
            "Roname": "JETPUR RAJKOT",
            "State": "Gujarat",
            "City": "",
            "Roaddress1": "JETPUR JUNAGADH STATE HIGHWAY JUNAGHADH ROAD, OPP. COLLAGE JETPUR  360370",
            "latitude": "21.7490867010",
            "longitude": "70.6157207570",
            "Ropincode": "360370",
            "Rocode": "GJF193",
            "Roid": "6633",
            "Territory": "Rajkot"
        },
        {
            "Roname": "Amrokh Jhansi Orai",
            "State": "Uttar Pradesh",
            "City": "Orai",
            "Roaddress1": "KHATA No. 178, NH-27, VILLAGE GIRTHAN, TEHSIL-ORAI,",
            "latitude": "25.924658",
            "longitude": "79.336731",
            "Ropincode": "285201",
            "Rocode": "UEF197",
            "Roid": "7206",
            "Territory": "Jalaun"
        },
        {
            "Roname": "BAGASARA BHAVNAGAR",
            "State": "Gujarat",
            "City": "BAGASARA",
            "Roaddress1": "SURVEY NO:193/P,AMRELI ROAD, BAGASARA,DISTRICT-AMRELI  364550 ",
            "latitude": "21.48824453",
            "longitude": "70.9667020260",
            "Ropincode": "365440",
            "Rocode": "GJF029",
            "Roid": "6705",
            "Territory": "Amreli"
        },
        {
            "Roname": "BANKURA DURGAPUR",
            "State": "West Bengal",
            "City": "DURGAPUR",
            "Roaddress1": "94/439,107(P) JL.NO. 203,, SANKAROTHI, P.O.-VADUL,, BANKURA, BANKURA, BANKURA",
            "latitude": "23.2213162190",
            "longitude": "87.0898725360",
            "Ropincode": "722101",
            "Rocode": "WBF015",
            "Roid": "6577",
            "Territory": "Bankura"
        },
        {
            "Roname": "TANKARA FF",
            "State": "Gujarat",
            "City": "Tankara(Rajkot)",
            "Roaddress1": "SH 24,VILLAGE:LAKHDHIRAGADH,POST_OFFICE NR MILESTONE NO. 43, RAJKOT MORBI SH24, PO LAKHDHIRGARH, TANKARA, RAJKOT - 363650  ",
            "latitude": "22.6651944440",
            "longitude": "70.7499722220",
            "Ropincode": "363650",
            "Rocode": "GJF009",
            "Roid": "1012",
            "Territory": "MORBI"
        },
        {
            "Roname": "BAMANBORE(SURENDRANAGAR)",
            "State": "Gujarat",
            "City": "BAMANBORE",
            "Roaddress1": "NH 8A SURVEY NO. 152 , 100 MTRS. BEFORE CHAINAGE 181 FROM RAJKOT TO AHMEDABAD VILL : MOTIMOLDI , TA CHOTILA DIST SURENDRANAGAR--  363520",
            "latitude": "22.4201944440",
            "longitude": "71.100750",
            "Ropincode": "363520",
            "Rocode": "GJT004",
            "Roid": "1076",
            "Territory": "Surendranagar"
        },
        {
            "Roname": "ITARSI (FF)",
            "State": "Madhya Pradesh",
            "City": "ITARSI",
            "Roaddress1": "RPMPL NH69 VILLAGE KHEDA DISTRICT : HOSHANGABAD ,ITARSI-461111  ",
            "latitude": "22.6370833330",
            "longitude": "77.7709166670",
            "Ropincode": "461111",
            "Rocode": "MPF057",
            "Roid": "1095",
            "Territory": "Hoshangabad"
        },
        {
            "Roname": "MULTAI",
            "State": "Madhya Pradesh",
            "City": "Multai",
            "Roaddress1": "RPMPL NH 69 KHASRA NO. 290/7, VILLAGE BHILAI TEHSIL MULTAI DIST. BETUL  460661",
            "latitude": "21.8076388890",
            "longitude": "78.2256388890",
            "Ropincode": "460661",
            "Rocode": "MPF043",
            "Roid": "1571",
            "Territory": "Betul"
        },
        {
            "Roname": "NAVDA",
            "State": "Maharashtra",
            "City": "",
            "Roaddress1": "SURVEY NO 58/2A, ROHINJAN VILLAGE, POST TALOJA, TALUKA PANVEL, DISTRICT: RAIGAD",
            "latitude": "19.0872085890",
            "longitude": "73.0794606470",
            "Ropincode": "410208",
            "Rocode": "MHF189",
            "Roid": "1672",
            "Territory": "RAIGAD"
        },
        {
            "Roname": "Basti RO",
            "State": "Uttar Pradesh",
            "City": "Basti",
            "Roaddress1": "Khasra no -224, Khatauni no-140 on Basti to Ayodhya Road, DUDHAURA, Basti, Taluka-Harraiya, District: Basti, State-Uttar Pradesh, 272155",
            "latitude": "26.7672046020",
            "longitude": "82.6254873310",
            "Ropincode": "272155",
            "Rocode": "UET009",
            "Roid": "1718",
            "Territory": "Basti"
        },
        {
            "Roname": "SANOLI ROAD KARNAL",
            "State": "Haryana",
            "City": "CHAJPUR",
            "Roaddress1": "RELIANCE PETROLOUTLET,VILLAGE CHAJJPUR KALAN, PANIPAT SHAMLI HIGHWAY, BAPOLI DISTT. PANIPAT HARYANA 132108",
            "latitude": "29.3845188360",
            "longitude": "77.1164598470",
            "Ropincode": "132103",
            "Rocode": "HRF076",
            "Roid": "6865",
            "Territory": "Panipat"
        },
        {
            "Roname": "SARSOL AGRA",
            "State": "Uttar Pradesh",
            "City": "",
            "Roaddress1": "M/S HORIZON FUEL CENTRE, KHATA NO 37, KHASRA NO 149  INDUSTRIAL ESTATE, AT BHIKAMPUR, KOAL, ALIGHAR, UP 202001 ",
            "latitude": "27.9217583333",
            "longitude": "78.0307444444",
            "Ropincode": "202001",
            "Rocode": "UWF081",
            "Roid": "6562",
            "Territory": "Aligarh"
        },
        {
            "Roname": "ASHOKNAGAR BHOPAL",
            "State": "Madhya Pradesh",
            "City": "Ashoknagar",
            "Roaddress1": "NEAR BYPASS ROAD, NEW BUS STAND, GRAM :ASHOK GRAM : ASHOK NAGAR PATWARI HAKKA NO 28, TEHSIL and DIST ASHOKNAGAR M.P 473331",
            "latitude": "24.5773888890",
            "longitude": "77.7390833330",
            "Ropincode": "473331",
            "Rocode": "MPF054",
            "Roid": "6268",
            "Territory": "Guna"
        },
        {
            "Roname": "DHANA JABALPUR",
            "State": "Madhya Pradesh",
            "City": "JABALPUR",
            "Roaddress1": "C/O RADHA ROADWAYS, BUS STAND, SAGAR  470002",
            "latitude": "23.7500053080",
            "longitude": "78.8499618480",
            "Ropincode": "470002",
            "Rocode": "MPR014",
            "Roid": "6991",
            "Territory": "Sagar"
        },
        {
            "Roname": "MPR030-RAJWAS JABALPUR",
            "State": "Madhya Pradesh",
            "City": "RAJWAS",
            "Roaddress1": "C/O JAIN AGENCIES, BUS STAND, REHLI, DISTT-SAGAR  470227",
            "latitude": "24.1202277970",
            "longitude": "78.6157409430",
            "Ropincode": "470227",
            "Rocode": "MPR030",
            "Roid": "6906",
            "Territory": "Sagar"
        },
        {
            "Roname": "BHAWANIPATNA SAMBALPUR",
            "State": "Odisha",
            "City": "SAMBALPUR",
            "Roaddress1": "KHATA NO.146 PLOT NO. 621, VILL:RISHIGAON,THANA:BHAWANIPATNA, TAHASIL:BHAWANIPATNA,DIST:KALAHANDI, BHAWANIPATNA",
            "latitude": "19.90416402",
            "longitude": "83.1656487660",
            "Ropincode": "766001",
            "Rocode": "ORF048",
            "Roid": "6731",
            "Territory": "Kalahandi"
        },
        {
            "Roname": "PARADIP",
            "State": "Odisha",
            "City": "Jagatsinghpur",
            "Roaddress1": "Plot No.1458(P),1460(P),1461(P),1464 (P),1465 (P), and 1466 ,in Khata No 881/275,881/277,885,881/274 situated at Village Udaybhat,P.S. Paradip, Taluka/Tehsil : Kujang, District : Jagatsingpur-754142",
            "latitude": "20.3087775040",
            "longitude": "86.6304656520",
            "Ropincode": "754142",
            "Rocode": "ORF012",
            "Roid": "7065",
            "Territory": ""
        },
        {
            "Roname": "DIBRA",
            "State": "Punjab",
            "City": "",
            "Roaddress1": "SANGRUR ROAD, VILLAGE TOORBANJARA, DIRBA , DISTT SANGRUR  DIRBA.RETAILOUTLET@RELPETROMAIL.COM",
            "latitude": "30.0860666180",
            "longitude": "75.9629590482",
            "Ropincode": "148035",
            "Rocode": "PBF012",
            "Roid": "6224",
            "Territory": "Sangrur"
        },
        {
            "Roname": "BHIKHI CHANDIGARH",
            "State": "Punjab",
            "City": "Bhikhi",
            "Roaddress1": " BHIKHI- MANSA ROAD  BHIKHI.RETAILOUTLET@RELPETROMAIL.COM",
            "latitude": "30.0605651858",
            "longitude": "75.5177883607",
            "Ropincode": "151504",
            "Rocode": "PBF016",
            "Roid": "6343",
            "Territory": "MAANSA"
        },
        {
            "Roname": "MALERKOTLA LUDHIANA",
            "State": "Punjab",
            "City": "",
            "Roaddress1": "SANGRUR ROAD, NEAR MAHA SHAKTI RICE MILLS, MALERKOTLA  MALERKOTLA.RETAILOUTLET@RELPETROMAIL.C",
            "latitude": "30.371660",
            "longitude": "75.546990",
            "Ropincode": "148023",
            "Rocode": "PBF023",
            "Roid": "6438",
            "Territory": "Sangrur"
        },
        {
            "Roname": "SUNAM(SANGRUR)",
            "State": "Punjab",
            "City": "",
            "Roaddress1": "JAKHAL ROAD, SUNAM, DISTT SANGRUR  SUNAM.RETAILOUTLET@RELPETROMAIL.COM",
            "latitude": "30.1158304617",
            "longitude": "75.8179869780",
            "Ropincode": "148028",
            "Rocode": "PBF027",
            "Roid": "6162",
            "Territory": "Sangrur"
        },
        {
            "Roname": "COIMBATORE",
            "State": "Tamil Nadu",
            "City": "",
            "Roaddress1": "SF No. 313/3 B Kovai Main Road, ",
            "latitude": "10.9998177720",
            "longitude": "77.2687863310",
            "Ropincode": "641664",
            "Rocode": "TNF011",
            "Roid": "7090",
            "Territory": "TIRUPPUR"
        },
        {
            "Roname": "MEDCHAL - HYDERABAD III",
            "State": "Telangana",
            "City": "MANOHARABAD",
            "Roaddress1": "SURVEY NO. 27 and 28, NH7, MANOHARABAD VILLAGE, POST. TOOPRAN MANDAL MEDAK DIST 501401",
            "latitude": "17.7725",
            "longitude": "78.47",
            "Ropincode": "502220",
            "Rocode": "APT017",
            "Roid": "1037",
            "Territory": "Medak"
        },
        {
            "Roname": "HYDERABAD 2 TS ( SANGAREDDY )",
            "State": "Telangana",
            "City": "",
            "Roaddress1": "SURVEY NO. 297/A, NH 9, NANDIKANDI VILLAGE, POST. SADASHIVPET MANDAL Sangareddy DIST 502306",
            "latitude": "17.6097222220",
            "longitude": "78.0013888890",
            "Ropincode": "502306",
            "Rocode": "APT002",
            "Roid": "1393",
            "Territory": "Medak"
        },
        {
            "Roname": "DHUMIYANI ( FF)",
            "State": "Gujarat",
            "City": "Dhumiyani(Rajkot)",
            "Roaddress1": "NH 8B,VILLAGE:DHUMIYANI,POST_OFFICE : DHUMIYANI,DISTRICT : RAJKOT NEAR KM STONE NO. 78, TA. - UPLETA, DIS, - RAJKOT  360490",
            "latitude": "21.7501544970",
            "longitude": "70.3187328080",
            "Ropincode": "360490",
            "Rocode": "GJF051",
            "Roid": "1013",
            "Territory": "Rajkot"
        },
        {
            "Roname": "SHEOPUR",
            "State": "Madhya Pradesh",
            "City": "SHEOPUR",
            "Roaddress1": "Ashok Kumar Aashish Kumar Patwari Halka No. 36, Vill: Jedha Sy. No.311 and 312, Khatoli Road Sheopur, Distt. Sheopur. Sheopur-476337",
            "latitude": "25.6703973410",
            "longitude": "76.6865624510",
            "Ropincode": "476337",
            "Rocode": "MPF074",
            "Roid": "7038",
            "Territory": "Sheopur"
        },
        {
            "Roname": "KIRATPUR CHANDIGARH",
            "State": "Punjab",
            "City": "KIRATPUR",
            "Roaddress1": "NH - 21, KALYAN PUR, KIRATPUR, ROPAR  ",
            "latitude": "31.1954650930",
            "longitude": "76.5938120780",
            "Ropincode": "140115",
            "Rocode": "PBF081",
            "Roid": "6846",
            "Territory": "ROOPNAGAR"
        },
        {
            "Roname": "Nagod",
            "State": "Madhya Pradesh",
            "City": "",
            "Roaddress1": "Khasra No.511 ,512 ,Vill.Barapathar ,Tehsil Nagod ,Panna Road NH-75 ,Nagod-485446",
            "latitude": "24.5708137770",
            "longitude": "80.5822835170",
            "Ropincode": "485446",
            "Rocode": "MPF080",
            "Roid": "7162",
            "Territory": "Satna"
        },
        {
            "Roname": "SRI DUNGARGARH JODHPUR",
            "State": "Rajasthan",
            "City": "",
            "Roaddress1": "Reliance Petrol Pump, NH-11, Bikaner Agra Highway, Sri Dungargarh - 331803",
            "latitude": "28.0891866920",
            "longitude": "73.9952528690",
            "Ropincode": "331803",
            "Rocode": "RJF123",
            "Roid": "6803",
            "Territory": "Bikaner"
        },
        {
            "Roname": "BHAINSA FF",
            "State": "Telangana",
            "City": "Adilabad",
            "Roaddress1": "M/S Ladda Enterprises, SY.NO.466, SH 24 VILLAGE and POST BHAINSA, ADILABAD DISTRICT - 504103. ANDHRA PRADESH  ",
            "latitude": "19.09680262",
            "longitude": "77.9533998740",
            "Ropincode": "504103",
            "Rocode": "APF072",
            "Roid": "1033",
            "Territory": "ADILABAD"
        },
        {
            "Roname": "MAUDHA KANPUR",
            "State": "Uttar Pradesh",
            "City": "",
            "Roaddress1": "M/S. TAJ FILLING STATION ,KHATAUNI NO- 454, ARAZI KHASRA NO -458  HAMIRPUR - MAUDAHA ROAD , NH-86 , NR. MILE STONE - 93 , VILL. MAKRAON , TEHSIL - MAUDAHA , DISTT. HAMIRPUR. 210507",
            "latitude": "25.6856311970",
            "longitude": "80.0946468140",
            "Ropincode": "233221",
            "Rocode": "UWF063",
            "Roid": "6732",
            "Territory": "Hamirpur"
        },
        {
            "Roname": "HIRIYUR HUBLI",
            "State": "Karnataka",
            "City": "",
            "Roaddress1": "MUYEED FUELS, SY. NO. 143, OPP  GOVT.VANI SUGAR FIRST GRADE COLLEGE,SRIRANGAPATNA and BIDAR ROAD,TALUKA HIRIYUR,DIST CHITRADURGA 572143",
            "latitude": "13.9406731660",
            "longitude": "76.6151746380",
            "Ropincode": "572143",
            "Rocode": "KRF122",
            "Roid": "7072",
            "Territory": "Chitradurga"
        },
        {
            "Roname": "MUZAFFARPUR FF",
            "State": "Bihar",
            "City": "",
            "Roaddress1": "NH-77, VILLAGE SAKARI SARAIANCHAL, KUDHANI, PS KHUDHANI",
            "latitude": "26.0985558120",
            "longitude": "85.3890815490",
            "Ropincode": "847227",
            "Rocode": "BHF005",
            "Roid": "1191",
            "Territory": "MUZZAFARPUR"
        },
        {
            "Roname": "GOPALGANJ I PATNA",
            "State": "Bihar",
            "City": "Gopalganj",
            "Roaddress1": "AT NH 28, Land plot No.997 Khata No.48 (New), 748(Old), Mouza-Konhwa, Thana No. 53, Thana- Gopalganj, Dist- Gopalganj, Bihar, Pin-841428.",
            "latitude": "26.4882077970",
            "longitude": "84.4002102310",
            "Ropincode": "841428",
            "Rocode": "BHF027",
            "Roid": "6429",
            "Territory": "Gopalganj"
        },
        {
            "Roname": "MODASA (CODO)",
            "State": "Gujarat",
            "City": "",
            "Roaddress1": "MODASA SURVEY NO 41/1 PAIKY SH 59 KMS 106 ,VILLAGE : MODASA, TALUKA : MODASA,  383315",
            "latitude": "23.4646534930",
            "longitude": "73.2949452480",
            "Ropincode": "383315",
            "Rocode": "GJF126",
            "Roid": "6113",
            "Territory": "ARVALLI"
        },
        {
            "Roname": "CHANDIKAPUR NAGPUR",
            "State": "Maharashtra",
            "City": "CHANDIKAPUR",
            "Roaddress1": "Gut Number 169, Hollar to Singhnapur Road, Gate No 16, Mauza Chandikapur, Daryapur Amravati 444803",
            "latitude": "20.9710338770",
            "longitude": "77.4828862590",
            "Ropincode": "444802",
            "Rocode": "MHR040",
            "Roid": "7059",
            "Territory": "Amravati"
        },
        {
            "Roname": " Balrampur",
            "State": "Uttar Pradesh",
            "City": "Balrampur",
            "Roaddress1": "PACHPERWA BARHNI MARG, SIRSIA BALRAMPUR, TULSIPUR BALRAMPUR",
            "latitude": "27.521856",
            "longitude": "82.407897",
            "Ropincode": "271201",
            "Rocode": "UEF031",
            "Roid": "7139",
            "Territory": "Balrampur"
        },
        {
            "Roname": "CHOMU-I JAIPUR",
            "State": "Rajasthan",
            "City": "CHOMU",
            "Roaddress1": "KHASRA NO 7103/2, 7103/3,7104/2,7105,7106 NH11 MILE STONE 263-264 OPP. RADHASWAMI BAG, VILLAGE and TEHSIL CHOMU DIST. JAIPUR RAJASTHAN  - 303702  ",
            "latitude": "27.1428611110",
            "longitude": "75.7289722220",
            "Ropincode": "303702",
            "Rocode": "RJF022",
            "Roid": "6596",
            "Territory": "Jaipur"
        },
        {
            "Roname": "LAXMANGARH JAIPUR",
            "State": "Rajasthan",
            "City": "LAXMANGARH",
            "Roaddress1": "KHASRA NO.202/21, NH-11, VILLAGE GHASSSU, GRAM PANCHYAT JASRASAR, TEHSIL LAXMANGARH, DISTT. SIKAR, RAJASTHAN  ",
            "latitude": "27.7904305180",
            "longitude": "75.0446181910",
            "Ropincode": "332311",
            "Rocode": "RJF032",
            "Roid": "6399",
            "Territory": "Sikar"
        },
        {
            "Roname": "Chotoguma",
            "State": "Assam",
            "City": "DHUBRI",
            "Roaddress1": "Dag No138 Patta No 4 Village:Chotoguma,Mouza-Guma,PS-Tamarhat,and Circle Office-Gossaigaon,Dist:Kokrajhar,State :Assam.Pin code :783336",
            "latitude": "26.316177",
            "longitude": "89.765813",
            "Ropincode": "783336",
            "Rocode": "ASR036",
            "Roid": "7132",
            "Territory": "Dhubri"
        },
        {
            "Roname": "CHILODA ( FF)",
            "State": "Gujarat",
            "City": "CHILODA",
            "Roaddress1": "NH8, SURVEY NO. 270 /P, OPP ADHARSHILA SCHOOL,VILLAGE VALAD, NEAR MILESTONE 506, DIST. GANDHINAGAR -   382360",
            "latitude": "23.1391666670",
            "longitude": "72.6877777780",
            "Ropincode": "382360",
            "Rocode": "GJF146",
            "Roid": "1004",
            "Territory": "Gandhinagar"
        },
        {
            "Roname": "Aslali TS - GJM001 - MDU",
            "State": "Gujarat",
            "City": "",
            "Roaddress1": "52, TRISHLA KUTIR, HEBATPUR ROAD, AHMEDABAD GUJARAT 380059",
            "latitude": "22.840050",
            "longitude": "72.604290",
            "Ropincode": "380059",
            "Rocode": "GJM001",
            "Roid": "9904",
            "Territory": ""
        },
        {
            "Roname": "SANAVAD FF",
            "State": "Madhya Pradesh",
            "City": "Sanavad(Khargone)",
            "Roaddress1": "SH-27 VILLAGE MORGADI, INDORE KHANDWA ROAD, SANAWAD, DISTRICT KHARGONE, 451111",
            "latitude": "22.1688639030",
            "longitude": "76.0739650920",
            "Ropincode": "451111",
            "Rocode": "MPF014",
            "Roid": "1092",
            "Territory": "Khargone"
        },
        {
            "Roname": "ASTHA KOLHAPUR",
            "State": "Maharashtra",
            "City": "KOLHAPUR",
            "Roaddress1": "HISSA NO 1, VILLAGE:ASTHA, TAL-WALVA,DIST-SANGLI,ISLAMPUR SANGLI ROAD  416301",
            "latitude": "16.9450601980",
            "longitude": "74.4046597480",
            "Ropincode": "416301",
            "Rocode": "MHF146",
            "Roid": "6484",
            "Territory": "Sangli"
        },
        {
            "Roname": "RATLAM INDORE",
            "State": "Madhya Pradesh",
            "City": "RATLAM",
            "Roaddress1": "POWER HOUSE ROAD, MUNICIPAL HOUSE NO 16/1010/22  PLOT NO.22, HOTEL RITURAJ, RATLAM  457001",
            "latitude": "23.3326989690",
            "longitude": "75.0469121950",
            "Ropincode": "457001",
            "Rocode": "MPC003",
            "Roid": "7012",
            "Territory": "Ratlam"
        },
        {
            "Roname": "RAMNAGARAM BANGALORE",
            "State": "Karnataka",
            "City": "",
            "Roaddress1": "Khatha No.1911:38:1, Ward No.27, Of Vivekanandanagar, Jeegenahhli Village, Ramanagara Town",
            "latitude": "12.7294166670",
            "longitude": "77.2759444440",
            "Ropincode": "562159",
            "Rocode": "KRF009",
            "Roid": "6415",
            "Territory": "Ramnagara"
        },
        {
            "Roname": "JAMBUSAR FF",
            "State": "Gujarat",
            "City": "bharuch",
            "Roaddress1": "RELIANCE RETAIL OUTLET R S NO. 2867/2868/1322, BESIDES HOTEL HARDEN, AT and POST VILL JAMBUSAR, DIST: BHARUCH 392150.",
            "latitude": "22.0419444440",
            "longitude": "72.8272222220",
            "Ropincode": "392150",
            "Rocode": "GJF048",
            "Roid": "1435",
            "Territory": "Bharuch"
        },
        {
            "Roname": "RAKHIYAL AHMEDABAD 1",
            "State": "Gujarat",
            "City": "",
            "Roaddress1": "TP SCHEME NO. 10, OP. SURVEY NO. 311+312/2, FINAL PLOT NO 5, OPP OLD NIRMA BHARAT BOBBIN, GARIBNAGAR CHAR RASTA, RAKHIAL, AHMEDABAD 380021",
            "latitude": "23.0224277890",
            "longitude": "72.6199957690",
            "Ropincode": "380021",
            "Rocode": "GJC127",
            "Roid": "6746",
            "Territory": "Ahmedabad"
        },
        {
            "Roname": "DHARAPURAM",
            "State": "Tamil Nadu",
            "City": "",
            "Roaddress1": " TS No 6, Block No. 18 , Ward No. 4 (OLD SF NO 693/1,2A&3A) Dharapuram Town & Taluk, Erode District -  638656",
            "latitude": "10.7405717690",
            "longitude": "77.5179686880",
            "Ropincode": "638656",
            "Rocode": "TNF036",
            "Roid": "1613",
            "Territory": "TIRUPPUR"
        },
        {
            "Roname": "CHOPDA AURANGABAD",
            "State": "Maharashtra",
            "City": "AURANGABAD",
            "Roaddress1": "SY.NO -876, PLOT NO.50/51, NEAR KARGIL CHOWK, CHOPDA, DIST: JALGAON., CHOPDA",
            "latitude": "21.2397923720",
            "longitude": "75.2947940970",
            "Ropincode": "425107",
            "Rocode": "MHF083",
            "Roid": "7054",
            "Territory": "Jalgaon"
        },
        {
            "Roname": "SAVDA NASHIK",
            "State": "Maharashtra",
            "City": "Savda",
            "Roaddress1": "PLOT NO 28 29 30 RSNO.1335/2Eand2F MAHURKAR TRADING CO., PL. NO.143/3, NEAR MUNJOBA TEMPLE, AT WEST BAPATLA VILLAGE, FAIZPUR ROAD SAVDA 425502",
            "latitude": "21.1515919930",
            "longitude": "75.8942890250",
            "Ropincode": "425502",
            "Rocode": "MHF096",
            "Roid": "6336",
            "Territory": "Jalgaon"
        },
        {
            "Roname": "VIJAYWADA II FF ( IBRAHIMPATNAM )",
            "State": "Andhra Pradesh",
            "City": "",
            "Roaddress1": "MS:250/4, NH-9, JUPUDI (V) IBRAHIMPATNAM, POST. IBRAHIMPATNAM, DIST.KRISHNA - 521456 (AP)",
            "latitude": "16.603056",
            "longitude": "80.503056",
            "Ropincode": "521456",
            "Rocode": "APF024",
            "Roid": "1339",
            "Territory": "Krishna"
        },
        {
            "Roname": "GONDA II LUCKNOW",
            "State": "Uttar Pradesh",
            "City": "",
            "Roaddress1": "NEAR NAVIN MANDI ,BAHRAICH BY-PASS,GONDA VILLAGE JANKI NAGAR PARGANA and TEHSIL and DIST GONDA UP 271001,",
            "latitude": "27.14393120",
            "longitude": "81.9567030430",
            "Ropincode": "271001",
            "Rocode": "UEF076",
            "Roid": "6115",
            "Territory": "Gonda"
        },
        {
            "Roname": "NARSARAOPET",
            "State": "Andhra Pradesh",
            "City": "",
            "Roaddress1": "M/S TIRUMALA FILLING STATION, SY.NO:-265/A3,266/C,267/A1,A3 and C1, NARASAROAPET VILLAGE, KESANAPALLI ROAD, NARASARAOPET - 522602 GUNTUR DIST (A.P) ",
            "latitude": "16.2254515450",
            "longitude": "80.0669934780",
            "Ropincode": "522601",
            "Rocode": "APF063",
            "Roid": "6276",
            "Territory": "Guntur"
        },
        {
            "Roname": "YUYYURU VIJAYAWADA",
            "State": "Andhra Pradesh",
            "City": "",
            "Roaddress1": "SURVEYNO 530/2C and 531/1C, 26/6, NH-09, BYPASS ROAD, VUYYUR VILLAGE and TALUK VUYYUR, KRISHNA (DIST) 521165",
            "latitude": "16.3716097010",
            "longitude": "80.8446889360",
            "Ropincode": "521165",
            "Rocode": "APF098",
            "Roid": "6639",
            "Territory": "Krishna"
        },
        {
            "Roname": "VIJAYWADA I",
            "State": "Andhra Pradesh",
            "City": "",
            "Roaddress1": "HANUMAN JUNCTION RETAIL OUTLET,MILE STONE :36/4,NH5,OPP. PALM OIL FACTORY, AMPAPURAM VILLAGE,BAPPULA PADU MANDAL, NEAR HNAUMAN JUNCTION,KRISHNA (DIST)- 521109",
            "latitude": "16.6001799470",
            "longitude": "80.8943671370",
            "Ropincode": "521109",
            "Rocode": "APT006",
            "Roid": "1362",
            "Territory": "Krishna"
        },
        {
            "Roname": "BALASINOR",
            "State": "Gujarat",
            "City": "",
            "Roaddress1": "C/O LALA TRAVELS, OLD BUS STAND  VILLAGE BALASINOR, TALUKA : BALASINOR, DIST : KHEDA BALASINOR - 388255 ",
            "latitude": "22.9458413260",
            "longitude": "73.33644276",
            "Ropincode": "388255",
            "Rocode": "GJF097",
            "Roid": "6195",
            "Territory": "Mahisagar"
        },
        {
            "Roname": "THARA-KANKREJ(BANASKANTHA)",
            "State": "Gujarat",
            "City": "",
            "Roaddress1": "SURVEY NO.122P/1, VILLAGE : SADUJIVAS,  THARA, TALUKA:KANKREJ,  DIST.BANASKANTHA  385555",
            "latitude": "23.9581401310",
            "longitude": "71.8111839850",
            "Ropincode": "385555",
            "Rocode": "GJF017",
            "Roid": "6247",
            "Territory": "BANAS KANTHA"
        },
        {
            "Roname": "DEESA AHMEDABAD II",
            "State": "Gujarat",
            "City": "DEESA",
            "Roaddress1": "SURVEY NO. 27/A/2,  RADHANPUR DEESA HIGHWAY,   NR. VISHWAKARMA TEMPLE, DEESA  385535",
            "latitude": "24.2719034790",
            "longitude": "72.1789493730",
            "Ropincode": "385535",
            "Rocode": "GJF105",
            "Roid": "6687",
            "Territory": "BANAS KANTHA"
        },
        {
            "Roname": "KAPADWANJ BADA-II",
            "State": "Gujarat",
            "City": "KAPADWANJ",
            "Roaddress1": "POSHAK PETROLEUM, SURVEY NO.112/2, OPP.PRIYA CINEMA, NADIAD RD, KAPADWANJ  ",
            "latitude": "23.0277157260",
            "longitude": "73.0881862540",
            "Ropincode": "387620",
            "Rocode": "GJF094",
            "Roid": "6778",
            "Territory": "KHEDA"
        },
        {
            "Roname": "NAYAGARH BHUBANESWAR",
            "State": "Odisha",
            "City": "",
            "Roaddress1": "DURGAPRASAD, GHADUALA,, P.S:-NAYAGARH,NAYAGARH, STATE:-ORISSA., NAYAGARH",
            "latitude": "20.1319420130",
            "longitude": "85.1288618470",
            "Ropincode": "752069",
            "Rocode": "ORF042",
            "Roid": "6650",
            "Territory": "Nayagarh"
        },
        {
            "Roname": "KAMALPAR RAJKOT",
            "State": "Gujarat",
            "City": "KAMALPAR",
            "Roaddress1": "SURVEY NO.36/1P, CHOTILA ROAD, VILLAGE KAMALPAR, TALUKA JASDAN, DISTRICT RAJKOT, GUJARAT 360025",
            "latitude": "22.1479030470",
            "longitude": "71.1975374860",
            "Ropincode": "360025",
            "Rocode": "GJR090",
            "Roid": "6815",
            "Territory": "RAJKOT"
        },
        {
            "Roname": "CHITTOR FF",
            "State": "Andhra Pradesh",
            "City": "CHITTOR",
            "Roaddress1": "RELIANCE RETAILOUTLET. NH4, MILE STONE :151/2, GANGASAGARAM VILLAGE, REDDY GUNTA POST , CHITTOOR, A.P  517004",
            "latitude": "13.160278",
            "longitude": "79.1050",
            "Ropincode": "517004",
            "Rocode": "APF026",
            "Roid": "1039",
            "Territory": "Chittoor"
        },
        {
            "Roname": "HINDUPUR ANANTAPUR",
            "State": "Andhra Pradesh",
            "City": "",
            "Roaddress1": "S.NO:95-2and99-1, OPP:COCOON MARKET, HINDUPUR, ANANTAPUR DIST-515212 ",
            "latitude": "13.825830",
            "longitude": "77.475010",
            "Ropincode": "515212",
            "Rocode": "APF033",
            "Roid": "6765",
            "Territory": "ANANTAPUR"
        },
        {
            "Roname": "SRIKALAHASTI",
            "State": "Andhra Pradesh",
            "City": "",
            "Roaddress1": "SRIKALAHASTI RETAIL OUTLET, SURVEY NO. 151/2,  MDR,MILESTONE 42/6,  THOTTEMBEDU VILLAGE, SRIKALAHASTI, CHITTOOR DISTRICT -  ANDHRA PRADESH, PIN CODE -517640  ",
            "latitude": "13.7606509070",
            "longitude": "79.6996204450",
            "Ropincode": "517640",
            "Rocode": "APF124",
            "Roid": "1601",
            "Territory": "Chittoor"
        },
        {
            "Roname": "Haridwar Road Dehradun",
            "State": "Uttarakhand",
            "City": "",
            "Roaddress1": "KHASRA NO. 108, NH 72, OPPOSITE IIP GATE, P.O. IIP MOKHAMP, HARIDWAR ROAD, DEHRADUN, DEHRADUN",
            "latitude": "30.26917850",
            "longitude": "78.080637",
            "Ropincode": "248001",
            "Rocode": "UTC004",
            "Roid": "7175",
            "Territory": "Dehradun"
        },
        {
            "Roname": "KARAULI BHARATPUR",
            "State": "Rajasthan",
            "City": "KARAULI",
            "Roaddress1": "HINDAUN ROAD KARAULI JUNCTION, KHASRA NO 558 and562 SH 22 (HINDAUN- KARULI) VILLAGE TEHSIL and DISTT.KARAULI RAJASTHAN ",
            "latitude": "26.4858375260",
            "longitude": "77.0151876040",
            "Ropincode": "322241",
            "Rocode": "RJF015",
            "Roid": "6704",
            "Territory": "Karauli"
        },
        {
            "Roname": "NIRA SATARA",
            "State": "Maharashtra",
            "City": "",
            "Roaddress1": "GAT NO 188  PADEGAON  TAL- KHANDALA  DIST - SATARA  415521",
            "latitude": "18.0932777780",
            "longitude": "74.2138611110",
            "Ropincode": "415521",
            "Rocode": "MHF149",
            "Roid": "6230",
            "Territory": "Satara"
        },
        {
            "Roname": "GUDIYATTAM CHENNAI",
            "State": "Tamil Nadu",
            "City": "CHENNAI",
            "Roaddress1": "113/18 Katpadi Road, ",
            "latitude": "12.9445374640",
            "longitude": "78.8706543110",
            "Ropincode": "632602",
            "Rocode": "TNF020",
            "Roid": "6604",
            "Territory": "Vellore"
        },
        {
            "Roname": "SRIPERUMBUDUR TS CHENNAI 1A",
            "State": "Tamil Nadu",
            "City": "CHENNAI",
            "Roaddress1": "NH 4,SRIPERUMPUDUR, NEERVALUR VILLAGE,KANCHEEPURAM DIST,SRIPERUMBUDHOR, DIST. KANCHEEPURAM  631 561, TN,",
            "latitude": "12.8967294610",
            "longitude": "79.8067213010",
            "Ropincode": "631552",
            "Rocode": "TNT006",
            "Roid": "1052",
            "Territory": "KANCHIPURAM"
        },
        {
            "Roname": "RUPAHI JORHAT",
            "State": "Assam",
            "City": "RUPAHI",
            "Roaddress1": "DAG NO.668,669,PATTA NO.225, MOUZA-RUPOHI TOWN,VILL:KHATUAL, P.S.-RUPAHI, DIST-NAGAON,ASSAM, RUPAHI",
            "latitude": "26.4167627030",
            "longitude": "92.7336221790",
            "Ropincode": "782125",
            "Rocode": "ASR017",
            "Roid": "6918",
            "Territory": "KAMRUP"
        },
        {
            "Roname": "BONGALMARA JORHAT",
            "State": "Assam",
            "City": "BONGALMARA",
            "Roaddress1": "Bangalmora Thangal  Vill -- Bangalmora Thangal, Mouza - Laluk  LAKHIMPUR",
            "latitude": "27.5480587390",
            "longitude": "94.81050584",
            "Ropincode": "787054",
            "Rocode": "ASR045",
            "Roid": "7043",
            "Territory": "Lakhimpur"
        },
        {
            "Roname": "Sonari",
            "State": "Assam",
            "City": "Abhaypur, Revenue Circle: Sonari,",
            "Roaddress1": "Village: Naphuk Grant, Mouza: Abhoypur, Revenue Circle Office: Sonari, District: Sivasagar, within the state of Assam,Pin code No : 785690 ",
            "latitude": "27.0240840860",
            "longitude": "95.0129985160",
            "Ropincode": "785690",
            "Rocode": "ASR043",
            "Roid": "7150",
            "Territory": "Charaideo"
        },
        {
            "Roname": "RAJAHMUNDRY ( THADITOTA)",
            "State": "Andhra Pradesh",
            "City": "THADITOTA",
            "Roaddress1": "SURVE NO:310,PIDIMGOYYI VILLAGE,NEAR RTC  BUS COMPLEX, MORPUDI ROAD, RAJAHMUNDRY RURAL MANDAL ,EAST GODAVARI DIST ,RAJAHMUNDRY  533103",
            "latitude": "17.0006111110",
            "longitude": "81.7918333330",
            "Ropincode": "533103",
            "Rocode": "APF059",
            "Roid": "1624",
            "Territory": "East Godavari"
        },
        {
            "Roname": "RAMGARH HAZARIBAUG",
            "State": "Jharkhand",
            "City": "RAMGARH",
            "Roaddress1": "KHATA NO.:22,PLOTNO-185(P),, OPP GURUNANAKSCHOOL,NH-33,, THANA RAMGARHDISTTHAZARIBAGH, RAMGARH",
            "latitude": "23.6101062670",
            "longitude": "85.5158154510",
            "Ropincode": "829122",
            "Rocode": "JHF003",
            "Roid": "6581",
            "Territory": "Ramgarh"
        },
        {
            "Roname": "FEZPURJHIRKA DELHI",
            "State": "Haryana",
            "City": "",
            "Roaddress1": "KHEWAT / KHATA NO- 5/9 RECT NO 3,KILLA NO 22, MS 83/84 VILLAGE MAHOLI,GURGAON ALWAR RD, FEROZPUR, JHIRKA.HARYANA  122104",
            "latitude": "27.79328557",
            "longitude": "76.9483380120",
            "Ropincode": "122104",
            "Rocode": "HRF008",
            "Roid": "6338",
            "Territory": "Mewat"
        },
        {
            "Roname": "Barwadda TS - JHM003 - MDU",
            "State": "Jharkhand",
            "City": "",
            "Roaddress1": "KAUSHIK NIWAS, NEAR ELECTRIC POWER,DHAIYA, DHANBAD, JHARKHAND 826004",
            "latitude": "23.883633",
            "longitude": "86.283729",
            "Ropincode": "826004",
            "Rocode": "JHM003",
            "Roid": "9902",
            "Territory": ""
        },
        {
            "Roname": "BUDHAR JABALPUR",
            "State": "Madhya Pradesh",
            "City": "",
            "Roaddress1": "KHASRA NO 408/5, AMARKANTAK ROAD",
            "latitude": "23.2164879910",
            "longitude": "81.5277959760",
            "Ropincode": "484110",
            "Rocode": "MPF088",
            "Roid": "6995",
            "Territory": "Shahdol"
        },
        {
            "Roname": "KAMAREDDY",
            "State": "Telangana",
            "City": "",
            "Roaddress1": "M/S Rayeesa Enterprises, SURVEY NO.152,PART 154,NH7, VILLAGE and POST ANTHAMPALLI,BICKNOOR MANDAL, NIZAMABAD DIST- 503101",
            "latitude": "18.2142122530",
            "longitude": "78.3949051020",
            "Ropincode": "503101",
            "Rocode": "APF052",
            "Roid": "1352",
            "Territory": "Nizamabad"
        },
        {
            "Roname": "KOLHAPUR FF",
            "State": "Maharashtra",
            "City": "",
            "Roaddress1": "NH4,KASABE VADGOAN VILLAGE,P.O. PETH VADGOAN,KOLHAPUR",
            "latitude": "16.8208743141",
            "longitude": "74.2857086497",
            "Ropincode": "416112",
            "Rocode": "MHF126",
            "Roid": "1590",
            "Territory": "Kolhapur"
        },
        {
            "Roname": "WANKANER",
            "State": "Gujarat",
            "City": "Wankaner",
            "Roaddress1": "Survey no. 155, NH-27, Near KM Stone 217. Village: Vaghasia, Taluka: Wankaner, District: Morbi. Gujarat ¿ 363621",
            "latitude": "22.681961",
            "longitude": "70.947063",
            "Ropincode": "363621",
            "Rocode": "GJF011",
            "Roid": "1752",
            "Territory": "Morbi"
        },
        {
            "Roname": "JAMUDA-FALA FF",
            "State": "Gujarat",
            "City": "Jamuda/Phalla(Jamnagar)",
            "Roaddress1": "NEAR KHIJADIYA BYPASS, SURVEY NO-96,JAMNAGAR/RAJKOT HIGHWAY, KHJADIYA, DIST-JAMNAGAR ARIHANT GAS AGENCY, SHOP NO-213,PAORAMA MARKET,OPPOSITE DSP BUNGLOW,TEEN BATI, JAMNAGAR 361120",
            "latitude": "22.4972222220",
            "longitude": "70.1684722220",
            "Ropincode": "361120",
            "Rocode": "GJF121",
            "Roid": "1020",
            "Territory": "Jamnagar"
        },
        {
            "Roname": "NILAMBAUG BHAVNAGAR",
            "State": "Gujarat",
            "City": "NILAMBAUG",
            "Roaddress1": "CITY SURVEY NO:5684/P,PLOT NO:7 and 8, NILAMBAG,BHAVNAGAR,TALUKA-BHAVNAGAR,DISTRICT-BHAVNAGAR 364001  ",
            "latitude": "21.7700818660",
            "longitude": "72.1463671080",
            "Ropincode": "364002",
            "Rocode": "GJC099",
            "Roid": "6814",
            "Territory": "Bhavnagar"
        },
        {
            "Roname": "BHAVNAGAR 2",
            "State": "Gujarat",
            "City": "BHAVNAGAR",
            "Roaddress1": "SURVEY NO:185/PAIKI,NEAR MILESTONE NO:167, SH6 AT VILLAGE NARI,DISTRICT -BHAVNAGAR 364060 ",
            "latitude": "21.7641406750",
            "longitude": "72.0792772130",
            "Ropincode": "364004",
            "Rocode": "GJF147",
            "Roid": "1691",
            "Territory": "Bhavnagar"
        },
        {
            "Roname": "Shergarh",
            "State": "Odisha",
            "City": "",
            "Roaddress1": "PLOT  NO 117-26,30-34, 153,121/1059, KHATA NO 226/52 MOUZA OLIPATNA DIST. BALASORE",
            "latitude": "21.3887552190",
            "longitude": "86.8017300480",
            "Ropincode": "756043",
            "Rocode": "ORT001",
            "Roid": "1713",
            "Territory": "Balasore"
        },
        {
            "Roname": "PEDDAMBERPET TS",
            "State": "Telangana",
            "City": "",
            "Roaddress1": "SY.NO.69 (P), 70(P), NH9, VILLAGE and POST MALKAPUR, CHOUTTUPAL MANDAL, NALGONDA DIST.508252",
            "latitude": "17.2869444440",
            "longitude": "78.7741666670",
            "Ropincode": "508252",
            "Rocode": "APT003",
            "Roid": "1394",
            "Territory": "Nalgonda"
        },
        {
            "Roname": "KHED",
            "State": "Maharashtra",
            "City": "KHED",
            "Roaddress1": "48/1/A/1/B/1, KHEDDIGAR, NANDURBAR, SHAHADA, MAHARASTRA 425409",
            "latitude": "21.66497332",
            "longitude": "74.57241596",
            "Ropincode": "425409",
            "Rocode": "MHR098",
            "Roid": "7203",
            "Territory": "NANDURBAR"
        },
        {
            "Roname": "TIRUPPUR-AVINASHIRD COIMBATO",
            "State": "Tamil Nadu",
            "City": "",
            "Roaddress1": "562/2A2 & 3 Ammapalayam, ",
            "latitude": "11.1539134850",
            "longitude": "77.3091069070",
            "Ropincode": "641652",
            "Rocode": "TNC003",
            "Roid": "6617",
            "Territory": "TIRUPPUR"
        },
        {
            "Roname": "THUDIALUR COIMBATORE",
            "State": "Tamil Nadu",
            "City": "COIMBATORE",
            "Roaddress1": "S.F No 97/2, Kurudampalayam, Vadamadurai PO., ",
            "latitude": "11.0922975350",
            "longitude": "76.9379750830",
            "Ropincode": "641017",
            "Rocode": "TNF056",
            "Roid": "6614",
            "Territory": "Coimbatore"
        },
        {
            "Roname": "DINDIGUL TS",
            "State": "Tamil Nadu",
            "City": " Dindigul",
            "Roaddress1": "SURVEY NO.1866/1C, 1866/1D, 1868/5, 1868/6, 1866/1A, THADIKOMBU VILLAGE, LANDMARK: OPP TO SHANMUGAVEL MILLS, DINDIGUL DIST.  624709 ",
            "latitude": "10.4260716980",
            "longitude": "77.9540190520",
            "Ropincode": "624709",
            "Rocode": "TNT018",
            "Roid": "1379",
            "Territory": "Dindigul"
        },
        {
            "Roname": "MAHUVA SURAT",
            "State": "Gujarat",
            "City": "",
            "Roaddress1": " M/S SHREE SHIV SHAKTI PETROLEUM, SURVEY NO.13/PAIKEE, BUDHLESHWAR CHAR RASTA,TALUKA:MAHUVA, VIA BARDOLI, DIST:SURAT - 394250 ",
            "latitude": "21.0070641230",
            "longitude": "73.1446972040",
            "Ropincode": "394250",
            "Rocode": "GJF246",
            "Roid": "6495",
            "Territory": "Surat"
        },
        {
            "Roname": "VED ROAD SURAT",
            "State": "Gujarat",
            "City": "",
            "Roaddress1": "RELIANCE PETROL PUMP FP NO 34P, SUB PLOT NO.2, RS NO. 21/1/1,VED ROAD,SURAT CITY, SURAT - 395004",
            "latitude": "21.2230286440",
            "longitude": "72.8213584450",
            "Ropincode": "395004",
            "Rocode": "GJC022",
            "Roid": "6508",
            "Territory": "Surat"
        },
        {
            "Roname": "KURNOOL TOWN ANANTAPUR",
            "State": "Andhra Pradesh",
            "City": "KURNOOL",
            "Roaddress1": "SUVEY NO.714/A,NANDYAL RAOD, KURNOOL, ANDHRA PRADESH-518002 ",
            "latitude": "15.8354464390",
            "longitude": "78.0409955220",
            "Ropincode": "518002",
            "Rocode": "APC046",
            "Roid": "6916",
            "Territory": "Kurnool"
        },
        {
            "Roname": "RAMNAGAR FF",
            "State": "Uttar Pradesh",
            "City": "",
            "Roaddress1": "KHASRA NO:511, SH 13, PLOT NO. 911, OPP. TELEPHONE EXCHANGE VILLAGE BUDHWAL PARGANA and TEHSIL RAMNAGAR DIST. BARABANK 225202",
            "latitude": "27.0855786080",
            "longitude": "81.3986782060",
            "Ropincode": "225202",
            "Rocode": "UEF010",
            "Roid": "1520",
            "Territory": "BARABANKI"
        },
        {
            "Roname": "ELURU VIZAG",
            "State": "Andhra Pradesh",
            "City": "VIZAG",
            "Roaddress1": "NAGA HANUMAN PETROLEUM,VASANTHA MAHAL CENTRE,  T.S.NO. 758, MUNICIPAL BLOCK 14/B, E WARD, ELURU MUNICIPAL AREA, ELURU  534002",
            "latitude": "16.70968715",
            "longitude": "81.1050685760",
            "Ropincode": "534002",
            "Rocode": "APF050",
            "Roid": "6490",
            "Territory": "West Godavari"
        },
        {
            "Roname": "BADAUN-2 FF",
            "State": "Uttar Pradesh",
            "City": "Badaun",
            "Roaddress1": "Reliance RO Farukhhabad Road Narau Khurd opp mandi samati Badaun",
            "latitude": "28.0109444440",
            "longitude": "79.1483888890",
            "Ropincode": "243601",
            "Rocode": "UWF038",
            "Roid": "1134",
            "Territory": "Budaun"
        },
        {
            "Roname": "MANDIDEEP",
            "State": "Madhya Pradesh",
            "City": "",
            "Roaddress1": "KHASRA NO.168/1 and 169/2, .NH 12 PATWARI HALKA NO.4, OBEDULLAGANJ, TEHSIL. GOHARGANG,  MANDIDEEP- OBEDULLAHGANJ, DIST. RAISEN.  462046",
            "latitude": "23.0588333330",
            "longitude": "77.544750",
            "Ropincode": "462046",
            "Rocode": "MPF020",
            "Roid": "1489",
            "Territory": "Raisen"
        },
        {
            "Roname": "BALURGHAT",
            "State": "West Bengal",
            "City": "",
            "Roaddress1": "VILLAGE PARIAL, POST OFFICE ATRAYEE",
            "latitude": "25.3140211920",
            "longitude": "88.7643969340",
            "Ropincode": "733158",
            "Rocode": "WBF045",
            "Roid": "6241",
            "Territory": "DAKSHIN DINAJPUR"
        },
        {
            "Roname": "Jhansi TCE",
            "State": "Uttar Pradesh",
            "City": "Jhansi",
            "Roaddress1": "M/S UTKARSH JAISWAL WINE CONTRACTOR",
            "latitude": "0.0",
            "longitude": "0.0",
            "Ropincode": "123456",
            "Rocode": "UEX001",
            "Roid": "4030",
            "Territory": "Jhansi"
        },
        {
            "Roname": "ARUPPUKOTTAI",
            "State": "Tamil Nadu",
            "City": "Virudhnagar",
            "Roaddress1": "RELIANCE PETRO MARKETING PVT LTD,OLD SURVEY NO.192/10 ,NEW TS NO:6/10 WARD F,THIRICHULI ROAD,ARUPPUKOTTAI VIRUDHUNAGAR DISTRICT 626159",
            "latitude": "9.5041666670",
            "longitude": "78.1069444440",
            "Ropincode": "626159",
            "Rocode": "TNF006",
            "Roid": "6088",
            "Territory": "Virudhunagar"
        },
        {
            "Roname": "PARAMAKUDI MADURAI",
            "State": "Tamil Nadu",
            "City": "PARAMAKUDI",
            "Roaddress1": "RELIANCE PETROLEUM SURVEY NO 17, SAI BAGH 5/229 A-2, BHAGVAT SINGH ROAD , NEAREST MILE STONE 75/O PARAMAKUDI VILLAGE, PARAMAKUDI  TAMILNADU, PINCODE 623707 ",
            "latitude": "9.5419996240",
            "longitude": "78.5923249070",
            "Ropincode": "623707",
            "Rocode": "TNF106",
            "Roid": "6947",
            "Territory": "Ramanathapuram"
        },
        {
            "Roname": "KOVILPATTAI",
            "State": "Tamil Nadu",
            "City": "Kovilpatti",
            "Roaddress1": "88-B New Road, ",
            "latitude": "9.1786111110",
            "longitude": "77.8741666670",
            "Ropincode": "628501",
            "Rocode": "TNF067",
            "Roid": "6127",
            "Territory": "THOOTHUKUDI"
        },
        {
            "Roname": "MALOUT-2",
            "State": "Punjab",
            "City": "MALOUT",
            "Roaddress1": "RELIANCE PETRO MARKETING PVT. LIMITED, DEFENCE ROAD, NEAR DANAWALA CHOWK, MALOUT  MALOUT.RETAILOUTLET@RELPETROMAIL.COM",
            "latitude": "30.1635964158",
            "longitude": "74.5025153505",
            "Ropincode": "152107",
            "Rocode": "PBF046",
            "Roid": "1160",
            "Territory": "Muktsar"
        },
        {
            "Roname": "BHUCCHO MANDI BHATINDA",
            "State": "Punjab",
            "City": "",
            "Roaddress1": "VILL LEHRA BEGGA  BHUCCHO MANDI DISTT BATHINDA ( PUNJAB)  ",
            "latitude": "30.2295827590",
            "longitude": "75.0965004860",
            "Ropincode": "151101",
            "Rocode": "PBF052",
            "Roid": "6511",
            "Territory": "Bathinda"
        },
        {
            "Roname": "PICHABONI KOLKATA",
            "State": "West Bengal",
            "City": "Pichaboni",
            "Roaddress1": "VILLAGE BADALPUR, POST OFFICE PICHABONI",
            "latitude": "21.8111701850",
            "longitude": "87.7490039430",
            "Ropincode": "721455",
            "Rocode": "WBF087",
            "Roid": "6353",
            "Territory": "PURBA MEDINIPUR"
        },
        {
            "Roname": "JG-CITY RETAIL OUTLET",
            "State": "Gujarat",
            "City": "",
            "Roaddress1": "SURVEY NO.49/1,50 GULAB NAGAR NEAR VICTORIA BRIDGE, HAPPA, RAJKOT ROAD  361006, jamnagar",
            "latitude": "22.4621940230",
            "longitude": "70.0833569780",
            "Ropincode": "361006",
            "Rocode": "GJC114",
            "Roid": "6544",
            "Territory": "Jamnagar"
        },
        {
            "Roname": "MEHMOORGANJ VARANASI",
            "State": "Uttar Pradesh",
            "City": "",
            "Roaddress1": "D 63/10 , M/S GYAN SONS, MEHMOORGANJ, POST OFFICE- MEHMOORGANJ, POLICE STATION- SIGRA, DISTT- VARANSI - 221010  ",
            "latitude": "25.3113603390",
            "longitude": "82.9887245370",
            "Ropincode": "221010",
            "Rocode": "UEC018",
            "Roid": "7004",
            "Territory": "Varanasi"
        },
        {
            "Roname": "HARAUA FF",
            "State": "Uttar Pradesh",
            "City": "Varanasi",
            "Roaddress1": "AT-NH-56, NEAR MS-266  VILLAGE-SAHMALPUR, TEHSIL-VARANASI(PINDRA),  VARANASI",
            "latitude": "25.4140",
            "longitude": "82.8826388890",
            "Ropincode": "221105",
            "Rocode": "UEF013",
            "Roid": "1221",
            "Territory": "Varanasi"
        },
        {
            "Roname": "KARWI",
            "State": "Uttar Pradesh",
            "City": "Chitrakoot",
            "Roaddress1": "On NH-76, Nearest Mile Stone- 279, Khasra no. 76, Mouza - Amanpur, Village - Amanpur, Post Office - Karwi, Tehsil- Chitrakoot, District - Chitrakoot, Uttar Pradesh",
            "latitude": "25.2112168280",
            "longitude": "80.90691971",
            "Ropincode": "210205",
            "Rocode": "UEF054",
            "Roid": "1610",
            "Territory": "Chitrakoot"
        },
        {
            "Roname": "NAINI FF",
            "State": "Uttar Pradesh",
            "City": "",
            "Roaddress1": "KALINJARA,ARAIL,KARCHANA, NH-27,VILLAGE:BADALGANJ,POST_OFFICE : GHOORPUR,DISTRICT : ALLAHABAD , U.P, PIN CODE : 211003 ",
            "latitude": "25.3378611110",
            "longitude": "81.8293055560",
            "Ropincode": "211003",
            "Rocode": "UEF060",
            "Roid": "1224",
            "Territory": "Allahabad"
        },
        {
            "Roname": "BERTSGANJ VARANASI",
            "State": "Uttar Pradesh",
            "City": "",
            "Roaddress1": " KHATA KHATAUNI  NO-71 ARAZI KHASRA NO-15 AT GEGIAR PARANA BADHAR  VILL: GANGUAR, POST: BICHCHI, POLICE STATION: ROBERTSGANJ, DISTT.: SONEBHADRA.UP 231216",
            "latitude": "24.6903713370",
            "longitude": "83.0644064480",
            "Ropincode": "231216",
            "Rocode": "UEF066",
            "Roid": "6422",
            "Territory": "Sonbhadra"
        },
        {
            "Roname": "CHIKHLI",
            "State": "Gujarat",
            "City": "Navsari",
            "Roaddress1": "Reliance Petrol Pump, Plot no, 608/p,NA, Thala Tal Chikhli Dist: Navsari- 396521 State Gujarat",
            "latitude": "20.7812905520",
            "longitude": "73.0624722640",
            "Ropincode": "396521",
            "Rocode": "GJF140",
            "Roid": "1722",
            "Territory": "Navsari"
        },
        {
            "Roname": "SALEM II",
            "State": "Tamil Nadu",
            "City": "Kaligoundanpalayam",
            "Roaddress1": "Sy.No 157/1A & 157/1A2, Kaligoundanpalayam,Sankari Taluk,Salem District- 637103, TN",
            "latitude": "11.5808462950",
            "longitude": "78.0528826740",
            "Ropincode": "637103",
            "Rocode": "TNT005",
            "Roid": "1748",
            "Territory": "Salem"
        },
        {
            "Roname": "Sanver",
            "State": "Madhya Pradesh",
            "City": "INDORE",
            "Roaddress1": "102/5, A.B.ROAD, LASUDIYA MORI, DEWASNAKA, INDORE-452001, MP",
            "latitude": "22.97433333",
            "longitude": "75.83972222",
            "Ropincode": "452001",
            "Rocode": "MPF007",
            "Roid": "7207",
            "Territory": "Indore"
        },
        {
            "Roname": "KHUJNER BHOPAL",
            "State": "Madhya Pradesh",
            "City": "KHUJNER",
            "Roaddress1": "OPP. GOVT HIGHER S SCHOOL, KHUJNER, OPP KRISHI MANDI,DIST RAJGARH.  465687",
            "latitude": "23.7867648990",
            "longitude": "76.6196951630",
            "Ropincode": "465687",
            "Rocode": "MPR011",
            "Roid": "6949",
            "Territory": "Rajgarh"
        },
        {
            "Roname": "CHAKAN",
            "State": "Maharashtra",
            "City": "",
            "Roaddress1": "IAI services Survey No.227/P Nanekarwadi (Chakan),PUNE NASHIK HIGHWAY Tal Khed , Dist - Pune Chakan- 410 501",
            "latitude": "18.7395277780",
            "longitude": "73.8585277780",
            "Ropincode": "410501",
            "Rocode": "MHF014",
            "Roid": "1706",
            "Territory": "Pune"
        },
        {
            "Roname": "KHANDALA KOLHAPUR",
            "State": "Maharashtra",
            "City": "KHANDALA",
            "Roaddress1": "GHAT NO.391/3/A, MDR-3, KHANDALA LONAND RD, PO:KHANDALA, TAL: KHANDALA, DIST: SATARA., SATARA",
            "latitude": "18.0583333330",
            "longitude": "74.01",
            "Ropincode": "412802",
            "Rocode": "MHR070",
            "Roid": "6878",
            "Territory": "Satara"
        },
        {
            "Roname": "KHERALU(MEHSANA)",
            "State": "Gujarat",
            "City": "KHERALU",
            "Roaddress1": "SURVEY NO.1796/P,   MEHSANA HIGHWAY,  SH 56,   NR. DUDH SIT KENDRA, KHERALU DIST. MEHSANA  384325",
            "latitude": "23.8833700380",
            "longitude": "72.6088631020",
            "Ropincode": "384325",
            "Rocode": "GJF099",
            "Roid": "6233",
            "Territory": "MEHSANA"
        },
        {
            "Roname": "TAKOLI CHANDIGARH",
            "State": "Himachal Pradesh",
            "City": "",
            "Roaddress1": "KHASRA NO-773,NH-21,TAKOLI,SUB TEHSIL-AUTH,DISTT-MANDI  ",
            "latitude": "31.9537085730",
            "longitude": "77.1075955310",
            "Ropincode": "175121",
            "Rocode": "HPF012",
            "Roid": "7037",
            "Territory": "KULU"
        },
        {
            "Roname": "BEHRAMPORE TS",
            "State": "West Bengal",
            "City": "Behrampore(Murshidab",
            "Roaddress1": "KHATIAN NO 390, MAUZA MATH BINKAR, PS BERHAMPUR TOWN, DISTRICT: MURSHIDABAD",
            "latitude": "24.4492105150",
            "longitude": "88.0680128150",
            "Ropincode": "742227",
            "Rocode": "WBT009",
            "Roid": "1180",
            "Territory": "Murshidabad"
        },
        {
            "Roname": "BHINMAL JODHPUR",
            "State": "Rajasthan",
            "City": "BHINMAL",
            "Roaddress1": "KHASRA NO 5153 SITUATED ON SH-31 (BHINMAL-JALORE) IN VILLAGE and TEHSIL BHINMAL DISTT. JALORE RAJASTHAN - ",
            "latitude": "25.0050235070",
            "longitude": "72.2927786230",
            "Ropincode": "343029",
            "Rocode": "RJF065",
            "Roid": "6691",
            "Territory": "Jalore"
        },
        {
            "Roname": "BAR",
            "State": "Rajasthan",
            "City": "",
            "Roaddress1": "OPPOSITE CHAINAGE NO. 20, VILLAGE JHALA KI CHOWKI NH-14,  BAR DISTT PALI PIN CODE 306105 ",
            "latitude": "26.0755472222",
            "longitude": "74.1454527778",
            "Ropincode": "306105",
            "Rocode": "RJF094",
            "Roid": "1245",
            "Territory": "Pali"
        },
        {
            "Roname": "SOORSAGAR JODHPUR",
            "State": "Rajasthan",
            "City": "SOORSAGAR",
            "Roaddress1": "RELIANCE INDUSTRIES LTD, C/O M/S RAMDEV PETRO POINT, KHASRA NO. 75/2 ,NH-114 JODHPUR -JAISALMER ROAD,  VILL-GEVON, TEHSIL JODHPUR DIST- JODHPUR RAJASTHAN, PINCODE - 342024.",
            "latitude": "26.3200628580",
            "longitude": "73.0210170870",
            "Ropincode": "342001",
            "Rocode": "RJF100",
            "Roid": "6996",
            "Territory": "Jodhpur"
        },
        {
            "Roname": "BAZPUR BAREILLY",
            "State": "Uttarakhand",
            "City": "BAZPUR",
            "Roaddress1": "Shree OM Narayan fuels, Rampur Road , near bajpur doraha bajpur dist. Udham singh nagar",
            "latitude": "29.1567779170",
            "longitude": "79.1488855320",
            "Ropincode": "244713",
            "Rocode": "UTF011",
            "Roid": "6509",
            "Territory": "UDHAM SINGH NAGAR"
        },
        {
            "Roname": "GAJRAULA TS",
            "State": "Uttar Pradesh",
            "City": "",
            "Roaddress1": "NH-24,Khasra No-58, village Basturi opp altab Mehtab Industries , JP Nagar , Gajraula , UP",
            "latitude": "28.8385659460",
            "longitude": "78.3170510040",
            "Ropincode": "244236",
            "Rocode": "UWT006",
            "Roid": "1325",
            "Territory": "AMROHA"
        },
        {
            "Roname": "MIRZAPAR",
            "State": "Gujarat",
            "City": "Kachch",
            "Roaddress1": "SURVEY NO. 237/P, VILL: SUKHPAR, TAL: BHUJ DISTRICT : KUTCH ,  370001",
            "latitude": "23.22041531",
            "longitude": "69.6297882540",
            "Ropincode": "370001",
            "Rocode": "GJF129",
            "Roid": "1083",
            "Territory": "KUTCHCHH"
        },
        {
            "Roname": "DAHISARA (DODO)",
            "State": "Gujarat",
            "City": "",
            "Roaddress1": "BHUJ-MANDVI ROAD SURVEY NO. 119/7P, VILLAGE: DAHISARA, TAL: BHUJ, DIS: KUTCH  370485",
            "latitude": "23.1752385880",
            "longitude": "69.5913189160",
            "Ropincode": "370485",
            "Rocode": "GJF215",
            "Roid": "6321",
            "Territory": "KUTCHCHH"
        },
        {
            "Roname": "GOLA LUCKNOW",
            "State": "Uttar Pradesh",
            "City": "",
            "Roaddress1": "M/S SHREE KRISHNA PETROLEUM, AJIT NAGAR,  MOHALLA RAZA NAGAR LAKHIMPUR ROAD,GOLA GOKARNATH,LAKHIMPUR KERI 262802 ",
            "latitude": "28.0718279890",
            "longitude": "80.4805860320",
            "Ropincode": "262802",
            "Rocode": "UEF019",
            "Roid": "6449",
            "Territory": "Kheri"
        },
        {
            "Roname": "SANDILLA LUCKNOW",
            "State": "Uttar Pradesh",
            "City": "",
            "Roaddress1": "KHATA KHATAURI NO -16 PLOT NO. 798, 799. VILLAGE - MAHATWANA, TEHSIL and PARGANA - SANDILA, DIST: HARDOI, U.P 241204",
            "latitude": "27.0624114630",
            "longitude": "80.5071819060",
            "Ropincode": "241204",
            "Rocode": "UEF027",
            "Roid": "6566",
            "Territory": "Hardoi"
        },
        {
            "Roname": "PAINTH",
            "State": "Uttar Pradesh",
            "City": "",
            "Roaddress1": "M/S RAJSHREE ENTERPRISES, KHATA KHATAUNI NO. 86, AGARWAL ENTERPRISES, 10, RAMNAGAR, KRISHNA NAGAR, MATHURA B) 10, RAMNAGAR, KRISHNA NAGAR, KHAIRA NO 259, LOHAVAN, MANTH, MATHURA, UP - 281004",
            "latitude": "27.53643062",
            "longitude": "77.7629039790",
            "Ropincode": "281004",
            "Rocode": "UWF002",
            "Roid": "6165",
            "Territory": "Mathura"
        },
        {
            "Roname": "DABOK FF",
            "State": "Rajasthan",
            "City": "Dabok",
            "Roaddress1": "KHASRA NO. - 448/3, 449 MIN., 450 and 884/447 , LHS TOWARDS :- UDAIPUR-CHITTORGARH , NH - 76 , VILLAGE :- TULSIDAAS JI KI SARAI , TEHSIL :- MAVLI , DISTRICT:-  UDAIPUR   ( RAJ.) PIN CODE  313022 ",
            "latitude": "24.6181138889",
            "longitude": "73.8395888889",
            "Ropincode": "313022",
            "Rocode": "RJF082",
            "Roid": "1241",
            "Territory": "Udaipur"
        },
        {
            "Roname": "DEOGARH AJMER",
            "State": "Rajasthan",
            "City": "",
            "Roaddress1": "KHASRA NO.785/357,NH-8,VILLAGE-KITON KA BADIA,PATWAR KAMLI, KAMLI GHAT CHOURAHA, TEHSIL-DEOGARH,DIST-RAJSAMAND ",
            "latitude": "25.5551132630",
            "longitude": "73.8885338040",
            "Ropincode": "313332",
            "Rocode": "RJF133",
            "Roid": "1657",
            "Territory": "Rajsamand"
        },
        {
            "Roname": "SIROHI TS",
            "State": "Rajasthan",
            "City": "Sirohi",
            "Roaddress1": "KHASRA NO - 377, LHS TOWARDS :- SIROHI-PALI , NH - 162 , VILLAGE :- PALDI , TEHSIL :- SHIVGANJ , DISTRICT:- SIROHI ( RAJ.)  PIN CODE 307027",
            "latitude": "24.9888573930",
            "longitude": "72.9056844820",
            "Ropincode": "307027",
            "Rocode": "RJT005",
            "Roid": "1250",
            "Territory": "Sirohi"
        },
        {
            "Roname": "FOUNDARY NAGAR (AGRA)",
            "State": "Uttar Pradesh",
            "City": "",
            "Roaddress1": "M/S BALKESHWAR FILLING STATION KHASRA NO 1346 MIG - 1, SHIVPURI, BALKESHWAR COLONY, AGRA , VILG POIYA,HATRAS ROAD,TEHSIL ETMADUR,DIST AGRA, UP 282006",
            "latitude": "27.2078824350",
            "longitude": "78.0410005150",
            "Ropincode": "282006",
            "Rocode": "UWF082",
            "Roid": "6131",
            "Territory": "Agra"
        },
        {
            "Roname": "BEGUSARAI FF",
            "State": "Bihar",
            "City": "",
            "Roaddress1": "NH-31, VILLAGE KESAVE, MAUZA ANCHAL BARAUNI, THANA NO 557, BARAUNI, DISTRICT: BEGUSARAI",
            "latitude": "25.4293640270",
            "longitude": "86.0920804170",
            "Ropincode": "847227",
            "Rocode": "BHF004",
            "Roid": "1190",
            "Territory": "Begusarai"
        },
        {
            "Roname": "NURPUR FF",
            "State": "Uttar Pradesh",
            "City": "NURPUR",
            "Roaddress1": "RO- NURPUR,DISTT: BIJNORE, KHASRA NO. 14and 19, KHATAUNI NO. 45, VILLAGE - PIPLA JAGEER, NOORPUR, TEHSIL : CHANDPUR (U.P.)",
            "latitude": "29.1403333330",
            "longitude": "78.3990277780",
            "Ropincode": "246734",
            "Rocode": "UWF022",
            "Roid": "1373",
            "Territory": "Bijnor"
        },
        {
            "Roname": "KURU JAMSHEDPUR",
            "State": "Jharkhand",
            "City": "KURU",
            "Roaddress1": "PLOT-591(OLD),550(NEW),KHATA-, 17/1(OLD),104(NEW),MOUZA-KUNDO, PS-KURU,  DISTT -LOHARDAGA, KURU",
            "latitude": "23.5482962430",
            "longitude": "84.8111632410",
            "Ropincode": "835217",
            "Rocode": "JHF037",
            "Roid": "6546",
            "Territory": "Lohardaga"
        },
        {
            "Roname": "MEF004-BYRNIHAT GUWAHATI",
            "State": "Meghalaya",
            "City": "",
            "Roaddress1": "PATTA NO5 OF 1994, VILLAGE AMULKUCHI",
            "latitude": "26.0472485040",
            "longitude": "91.86815795",
            "Ropincode": "793101",
            "Rocode": "MEF004",
            "Roid": "6956",
            "Territory": "RI-BHOI"
        },
        {
            "Roname": "Jowai",
            "State": "Meghalaya",
            "City": "",
            "Roaddress1": "Jaintia Hills",
            "latitude": "25.46594976",
            "longitude": "92.2211400020",
            "Ropincode": "",
            "Rocode": "MEF002",
            "Roid": "7177",
            "Territory": "Jaintia Hills"
        },
        {
            "Roname": "PATTUKKOTTAI",
            "State": "Tamil Nadu",
            "City": "",
            "Roaddress1": " TS No. 43/2, Ward A, Block  8 (Old  Sy. No. 148B/4)& DOOR NO 9/1 Keelapalayam Village, ",
            "latitude": "10.4232255690",
            "longitude": "79.3113487810",
            "Ropincode": "614601",
            "Rocode": "TNF077",
            "Roid": "1597",
            "Territory": "Thanjavur"
        },
        {
            "Roname": "PERAMBALUR ( TS )",
            "State": "Tamil Nadu",
            "City": "Trichy",
            "Roaddress1": "NH 45, SURVEY NO.304/_1, ELAMBALUR VILLAGE,  TALUKA PERAMBALUR , DISTRICT:TRICHY  621212, TN,",
            "latitude": "11.2545721970",
            "longitude": "78.8960688670",
            "Ropincode": "621212",
            "Rocode": "TNT014",
            "Roid": "1054",
            "Territory": "Perambalur"
        },
        {
            "Roname": "MULANA",
            "State": "Haryana",
            "City": "MULANA",
            "Roaddress1": "NH73, ADJOINING BINDER DHARAM KANTA, OPP. NEW GRAIN MARKET, VILLAGE PATTI BHAGERU, POST. MULLANA ,TEHSIL BARARA, DIST. AMBALA 133203 HARYANA",
            "latitude": "30.2708888890",
            "longitude": "77.0401944440",
            "Ropincode": "133203",
            "Rocode": "HRF031",
            "Roid": "1265",
            "Territory": "Ambala"
        },
        {
            "Roname": "MEERUT ROAD Karnal",
            "State": "Haryana",
            "City": "MEERUT",
            "Roaddress1": "MDR-17, KHASRA NO.40//5 NEAR ARYA SWATANTRA SENANI FUEL STATION, KARNAL-MEERUT ROAD, VILLAGE and POST NAGLA MEGHA, TEHSIL and DISTT KARNAL - 132001 HARYANA ",
            "latitude": "29.6275381761",
            "longitude": "77.0835437106",
            "Ropincode": "132001",
            "Rocode": "HRF078",
            "Roid": "1264",
            "Territory": "Karnal"
        },
        {
            "Roname": "RASIPURAM SALEM",
            "State": "Tamil Nadu",
            "City": "",
            "Roaddress1": "Sf No: 5/4B, Rasipuram - Erode Main ROad, Rasipura , Rasipuram TK, Namakkal District - Pin: 637 408. ",
            "latitude": "11.4492222220",
            "longitude": "78.1628888890",
            "Ropincode": "637408",
            "Rocode": "TNF114",
            "Roid": "1655",
            "Territory": "Namakkal"
        },
        {
            "Roname": "NAMAKKAL II ( TS )",
            "State": "Tamil Nadu",
            "City": "NAMAKKAL",
            "Roaddress1": " NH7,SURVEY NO: 88/ 2 B 2, VILLAGE PAPPANIACKANPATTI,  NAMAKKAL 637003, TN",
            "latitude": "11.2795038760",
            "longitude": "78.1641085240",
            "Ropincode": "637003",
            "Rocode": "TNT012",
            "Roid": "1286",
            "Territory": "Namakkal"
        },
        {
            "Roname": "KUMHARI RAIPUR",
            "State": "Chattisgarh",
            "City": "",
            "Roaddress1": "NH 6 VILLAGE KUMHARI OPP YUG BODH PRAKASHAN DURG 490042",
            "latitude": "21.2512717760",
            "longitude": "81.5321348680",
            "Ropincode": "490042",
            "Rocode": "CGF015",
            "Roid": "6510",
            "Territory": "Durg"
        },
        {
            "Roname": "RAJIM RAIPUR",
            "State": "Chattisgarh",
            "City": "",
            "Roaddress1": "GOWARA NAWAPARA RAJIM DIST RAIPUR 493881",
            "latitude": "20.9658169030",
            "longitude": "81.88140509",
            "Ropincode": "493881",
            "Rocode": "CGF019",
            "Roid": "6513",
            "Territory": "Raipur"
        },
        {
            "Roname": "GADARWARA BHOPAL",
            "State": "Madhya Pradesh",
            "City": "BHOPAL",
            "Roaddress1": "KATHAL PETROL PUMP, GADARWARA VILLAGE:GADARWARA DIST:NARSINGPUR MP 487551",
            "latitude": "22.9209160350",
            "longitude": "78.7808097480",
            "Ropincode": "487551",
            "Rocode": "MPF079",
            "Roid": "6810",
            "Territory": "NARSINGHPUR"
        },
        {
            "Roname": "SEONI BHOPAL",
            "State": "Madhya Pradesh",
            "City": "SEONI",
            "Roaddress1": "KHARSA NO 57/2, SEONI JABALPUR ROAD",
            "latitude": "22.1003221120",
            "longitude": "79.5492467280",
            "Ropincode": "480661",
            "Rocode": "MPF095",
            "Roid": "6955",
            "Territory": "Seoni"
        },
        {
            "Roname": "KOPERGAON",
            "State": "Maharashtra",
            "City": "KOPERGAON",
            "Roaddress1": " VILLAGE - KHIRDIGANESH, NEAR YESHWANT POULTRY FARM,MANMAD NAGAR ROAD. , 423601",
            "latitude": "19.9605",
            "longitude": "74.4920",
            "Ropincode": "423601",
            "Rocode": "MHF057",
            "Roid": "1579",
            "Territory": "Ahmednagar"
        },
        {
            "Roname": "AKOLE",
            "State": "Maharashtra",
            "City": "",
            "Roaddress1": "Gat No. 38/(2A/2)/4 at post Akole Tal Akole Dist Ahmednagar.-422601",
            "latitude": "19.5420091540",
            "longitude": "74.0060588280",
            "Ropincode": "422601",
            "Rocode": "MHF160",
            "Roid": "6171",
            "Territory": "Ahmadnagar"
        },
        {
            "Roname": "BARGARH",
            "State": "Odisha",
            "City": "Bargarh",
            "Roaddress1": "NH-6,PLOT NO.3519,3520, VILL:BARAHGUDA,TALUKA:BARGARH, DISTT:BARGARH,ORISSA, BARGARH",
            "latitude": "21.3502103490",
            "longitude": "83.6910584670",
            "Ropincode": "768028",
            "Rocode": "ORF033",
            "Roid": "6069",
            "Territory": "Bargarh"
        },
        {
            "Roname": "BOLANGIR SAMBALPUR",
            "State": "Odisha",
            "City": "",
            "Roaddress1": "KHATA NO.114,PLOT NO.2025, MOUZA/VILLAGE:BOLANGIR, P.S.:BALANGIR, BALANGIR., BOLANGIR",
            "latitude": "20.7286940860",
            "longitude": "83.4941019370",
            "Ropincode": "767001",
            "Rocode": "ORF023",
            "Roid": "6370",
            "Territory": "BOLANGIR"
        },
        {
            "Roname": "Muvattupuzha 2",
            "State": "Kerala",
            "City": "Muvattupuzha",
            "Roaddress1": "SY NO.713/3-C,713/3-C-1, Velloorkkunnam Village, Muvattupuzha Taluk, Ernakulam Distict, Kerala, 686669",
            "latitude": "10.00345635",
            "longitude": "76.57080457",
            "Ropincode": "686669",
            "Rocode": "KLF118",
            "Roid": "7227",
            "Territory": "Ernakulam"
        },
        {
            "Roname": "RAU",
            "State": "Madhya Pradesh",
            "City": "",
            "Roaddress1": "M/S. RAJ CARGO CARRIERS SURVEY NO. 76/4/2,  A.B. ROAD, RAU, ADJOINING INDORE PUBLIC SCHOOL,  GRAM - HUKMAKHEDI, DISTT. INDORE.  452014",
            "latitude": "22.6538333330",
            "longitude": "75.8229166670",
            "Ropincode": "453441",
            "Rocode": "MPF008",
            "Roid": "1630",
            "Territory": "Indore"
        },
        {
            "Roname": "DAHOD BADA-I",
            "State": "Gujarat",
            "City": "DAHOD",
            "Roaddress1": "INDORE AHMEDABAD NATIONAL HIGHWAY NO 59, SURVEY  184/1, VILL: JALAT,  DAHOD-INDORE HIGHWAY, DAHOD  389151",
            "latitude": "22.8408126110",
            "longitude": "74.2026319250",
            "Ropincode": "363621",
            "Rocode": "GJF089",
            "Roid": "6720",
            "Territory": "Dahod"
        },
        {
            "Roname": "GARBADA BADA",
            "State": "Gujarat",
            "City": "GARBADA",
            "Roaddress1": "SURVEY NO 615/1/2, VILLAGE GARBADA",
            "latitude": "22.7313118780",
            "longitude": "74.3076108260",
            "Ropincode": "389155",
            "Rocode": "GJF232",
            "Roid": "7053",
            "Territory": "Dahod"
        },
        {
            "Roname": "SARADHANA",
            "State": "Rajasthan",
            "City": "Saradhana",
            "Roaddress1": "KHASRA NO. - 682 and 691 , LHS TOWARDS :- AJMER-BEAWAR , NH - 8 , VILLAGE :- ARJUNPURA KHALSA , TEHSIL :- PEENSANGAN , DISTRICT:- AJMER PIN CODE 305203  ",
            "latitude": "26.3017542520",
            "longitude": "74.5371375810",
            "Ropincode": "305206",
            "Rocode": "RJF072",
            "Roid": "1142",
            "Territory": "Ajmer"
        },
        {
            "Roname": "KEKRI FF",
            "State": "Rajasthan",
            "City": "KEKRI",
            "Roaddress1": "KHASRA NO. -  3983 , 3986, 3987, 3988, and 3989, LHS TOWARDS :- KEKRI - AJMER  , SH - 26 , VILLAGE :- KEKRI , TEHSIL :- KEKRI , DISTRICT:- AJMER ( RAJ.)  PIN CODE 305404 ",
            "latitude": "25.97672220",
            "longitude": "75.14166670",
            "Ropincode": "305404",
            "Rocode": "RJF077",
            "Roid": "1239",
            "Territory": "Ajmer"
        },
        {
            "Roname": "DUDU TS",
            "State": "Rajasthan",
            "City": "Dudu",
            "Roaddress1": "KHASRA NO. - 752, 753, 754, 755, 756, 757, 758, 759, 760 and 913 , LHS TOWARDS :- AJMER-JAIPUR , NH -8, VILLAGE :- DUDU , TEHSIL :- DUDU, DISTRICT:- JAIPUR   PIN_CODE : 303008 ",
            "latitude": "26.6979777778",
            "longitude": "75.2567916667",
            "Ropincode": "303008",
            "Rocode": "RJT003",
            "Roid": "1147",
            "Territory": "Jaipur"
        },
        {
            "Roname": "SAIPAU",
            "State": "Rajasthan",
            "City": "SAIPAU",
            "Roaddress1": "Reliance Petrol Pump, Khasra No. 1290/1, 1292, 1252/2/1, 1291/1, Bharatpur Road,Village Saipau, Tehsil Saipau, District Dholpur 328027",
            "latitude": "26.82486110",
            "longitude": "77.74180560",
            "Ropincode": "328027",
            "Rocode": "RJF016",
            "Roid": "1409",
            "Territory": "DHOLPUR"
        },
        {
            "Roname": "SONARIA",
            "State": "Gujarat",
            "City": "Sonaria",
            "Roaddress1": "NH-17 SURVEY NO: 83/P,NR. KM STONE 261, N.H.8E, VILLAGE : KAJALI (SONARIA), TALUKA:VERAVAL, DISTRICT:JUNAGADH.  362268",
            "latitude": "20.8983333330",
            "longitude": "70.4289166670",
            "Ropincode": "362266",
            "Rocode": "GJF062",
            "Roid": "1402",
            "Territory": "Gir Somnath"
        },
        {
            "Roname": "Diu",
            "State": "Daman and Diu",
            "City": "",
            "Roaddress1": "Reliance Petrol Pump, Plot no. PTS:-108/4(P) and No. PTS:-108/9(P) , Village - Diu, Taluka Diu, District Diu, UT - Daman and Diu",
            "latitude": "20.7139210310",
            "longitude": "70.9674776370",
            "Ropincode": "362520",
            "Rocode": "GJF069",
            "Roid": "7147",
            "Territory": "Diu"
        },
        {
            "Roname": "TIRUNELVELI MADURAI",
            "State": "Tamil Nadu",
            "City": "MADURAI",
            "Roaddress1": "23 Bye Pass Road, ",
            "latitude": "8.7038888890",
            "longitude": "77.7211111110",
            "Ropincode": "627005",
            "Rocode": "TNC079",
            "Roid": "6763",
            "Territory": "Tirunelveli"
        },
        {
            "Roname": "TISAIYINVILAI MADURAI",
            "State": "Tamil Nadu",
            "City": "MADURAI",
            "Roaddress1": "Sy.No: 4/1, Ittamozhi Road, Thisaiyanvilai",
            "latitude": "8.3329303380",
            "longitude": "77.8651506890",
            "Ropincode": "627657",
            "Rocode": "TNF120",
            "Roid": "6938",
            "Territory": "Tirunelveli"
        },
        {
            "Roname": "SIDDIPET",
            "State": "Telangana",
            "City": "",
            "Roaddress1": "SURVEY NO. 244, PONNALA, SIDDIPET DIST 502103",
            "latitude": "18.0536111110",
            "longitude": "78.8672222220",
            "Ropincode": "502103",
            "Rocode": "APF012",
            "Roid": "6111",
            "Territory": "Medak"
        },
        {
            "Roname": "BOMMAKKAL (KARIM NAGAR)",
            "State": "Telangana",
            "City": "Karimnagar",
            "Roaddress1": "SY. NO. 724 and 725 OPP. HOUSING BOARD COLONY, BOMMAKKAL, KAIMNAGAR.  505001",
            "latitude": "18.4224140510",
            "longitude": "79.1493735730",
            "Ropincode": "505001",
            "Rocode": "APF039",
            "Roid": "1617",
            "Territory": "KARIMNAGAR"
        },
        {
            "Roname": "CHICKBALLAPUR",
            "State": "Karnataka",
            "City": "",
            "Roaddress1": "SURVEY NO.134/2B,AMANI KANDAVARAKERE VILLAGE, BB ROAD CHIKKABALLAPUR 562101",
            "latitude": "13.4224575760",
            "longitude": "77.7299457430",
            "Ropincode": "562101",
            "Rocode": "KRF089",
            "Roid": "6502",
            "Territory": "Chikballapur"
        },
        {
            "Roname": "EHL HISSAR",
            "State": "Haryana",
            "City": "",
            "Roaddress1": "RAVI FILLING SATATION, VILLAGE BAHAL, BHIWANI ROAD, BEHL, TEHSIL LOHARU, DISTT. BHIWANI, HARYANA 127028",
            "latitude": "28.6319929520",
            "longitude": "75.6222214530",
            "Ropincode": "127028",
            "Rocode": "HRF015",
            "Roid": "6550",
            "Territory": "Bhiwani"
        },
        {
            "Roname": "RATIA",
            "State": "Haryana",
            "City": "",
            "Roaddress1": "SHREE BALAJI FILLING STATION,SH-21, KILLA NO - 306/8/2(2-0) ,8/1/1(0-10),8/1/2(0-13) VIDE MUTATION NO- 12668/12669/13523/13912/14270/14285 AT VILLAGE RATTIA FATEHABAD ROAD, RATIA-125051 HARYANA ",
            "latitude": "29.6790050580",
            "longitude": "75.5691299010",
            "Ropincode": "125051",
            "Rocode": "HRF072",
            "Roid": "6097",
            "Territory": "Fatehabad"
        },
        {
            "Roname": "RANIA HTAK",
            "State": "Haryana",
            "City": "",
            "Roaddress1": "SINGLA PETRO CITY, RELIANCE PETROL PUMP, VILLAGE- ABHOLI, TEHSIL RANIA, DISTT. SIRSA - 125076, HARYANA. ",
            "latitude": "29.5200920921",
            "longitude": "74.8537590164",
            "Ropincode": "125076",
            "Rocode": "HRF097",
            "Roid": "6339",
            "Territory": "Sirsa"
        },
        {
            "Roname": "RAJGARH ROAD HISAR",
            "State": "Haryana",
            "City": "",
            "Roaddress1": "SMT. NIHALI DEVI M/S CHAUDHARY PETROCARE  NH-65 VILL. GANGWA TEHSIL and DISTT. HISAR HARYANA 125004",
            "latitude": "29.1177908240",
            "longitude": "75.70031951",
            "Ropincode": "125004",
            "Rocode": "HRF101",
            "Roid": "6871",
            "Territory": "Hisar"
        },
        {
            "Roname": "BHADRAVATHI MANGALORE",
            "State": "Karnataka",
            "City": "",
            "Roaddress1": "MUNICIPAL NO. 278/293/316-1, B.H.ROAD, WARD NO.2. BHADRAVATHI  577301 ",
            "latitude": "13.8436390960",
            "longitude": "75.6931885520",
            "Ropincode": "577301",
            "Rocode": "KRF034",
            "Roid": "6968",
            "Territory": "Shimoga"
        },
        {
            "Roname": "SARNA JALLANDHAR",
            "State": "Punjab",
            "City": "",
            "Roaddress1": "MS-11,NH-15,LHS PATHANKOT GURDASPUR ROAD,VILL: KOTLI MUGHLAN,TEHSIL-PATHANKOT,DISTT-GURDASPUR,SARNA,PUNJAB-145025  ",
            "latitude": "32.2363444444",
            "longitude": "75.558350",
            "Ropincode": "145001",
            "Rocode": "PBF066",
            "Roid": "6688",
            "Territory": "Gurdaspur"
        },
        {
            "Roname": "JAGATPURA JAIPUR",
            "State": "Rajasthan",
            "City": "",
            "Roaddress1": "NABARD TIRAHA, VILLAGE CHAKDHULA, TEHSIL SANGANER, DISTRICT JAIPUR.PIN CODE 302017",
            "latitude": "26.8504722220",
            "longitude": "75.8253888890",
            "Ropincode": "302017",
            "Rocode": "RJC009",
            "Roid": "6326",
            "Territory": "Jaipur"
        },
        {
            "Roname": "DEOLI FF",
            "State": "Rajasthan",
            "City": "TONK",
            "Roaddress1": "NH12, MILE STONE 155, VILL PANWAD, TALUKA DEOLI, DISTRICT TONK, RAJASTHAN - 304804  ",
            "latitude": "25.7930138889",
            "longitude": "75.4199916667",
            "Ropincode": "304804",
            "Rocode": "RJF089",
            "Roid": "1517",
            "Territory": "Tonk"
        },
        {
            "Roname": "MALPURA JAIPUR",
            "State": "Rajasthan",
            "City": "MALPURA",
            "Roaddress1": "KHASRA NO 888/1319 SITUATED ON SH-12,  SH-8, KM-73,  MALPURA-JAIPUR ROAD, IN VILLAGE BRIJ LAL NAGAR, TEHSIL-MALPURA, DISTT.TONK RAJASTHAN ",
            "latitude": "26.2917728170",
            "longitude": "75.3715807520",
            "Ropincode": "304502",
            "Rocode": "RJF128",
            "Roid": "6836",
            "Territory": "Tonk"
        },
        {
            "Roname": "Mokhampura",
            "State": "Rajasthan",
            "City": "Jaipur",
            "Roaddress1": "KHASRA NO. 1109 AND 1110, MOKHAMPURA, BICHOON, MOJMABAD, RATAN, JAIPUR, RAJASTHAN 303604",
            "latitude": "26.796402",
            "longitude": "75.346683",
            "Ropincode": "303604",
            "Rocode": "RJF144",
            "Roid": "7200",
            "Territory": "Jaipur"
        },
        {
            "Roname": "SATANA FF",
            "State": "Maharashtra",
            "City": "Satana",
            "Roaddress1": "SH 7,VILLAGE INDIRA NAGAR,TALUKA BAGLAN DIST NAHIK. 423301",
            "latitude": "20.57566670",
            "longitude": "74.198250",
            "Ropincode": "423301",
            "Rocode": "MHF066",
            "Roid": "1105",
            "Territory": "Nashik"
        },
        {
            "Roname": "PIMPALGAON NASIK",
            "State": "Maharashtra",
            "City": "",
            "Roaddress1": "THAKKAR PETROLEUM  PLOT NO 447/1, NEAR KALYANI WEIGHBRIDGE, MUMBAI AGRA ROAD, AT POST PIMPALGAON BASWANT, TAL NIPHAD, DIST NASHIK 422209",
            "latitude": "20.1560078180",
            "longitude": "73.9855530270",
            "Ropincode": "422209",
            "Rocode": "MHF079",
            "Roid": "6727",
            "Territory": "Nashik"
        },
        {
            "Roname": "Chandwad",
            "State": "Maharashtra",
            "City": "Chandwad",
            "Roaddress1": "GAT NO 289 and 290, AT CHINCHVE, POST UMRANE, TAL DEOLA, NEAR NH 03, CHINCHVE, NASHIK, MAHARASHTRA, 423110",
            "latitude": "20.374335",
            "longitude": "74.316605",
            "Ropincode": "423110",
            "Rocode": "MHF381",
            "Roid": "7225",
            "Territory": "Nashik"
        },
        {
            "Roname": "THIRUKOVILUR CHENNAI",
            "State": "Tamil Nadu",
            "City": "THIRUKOVILUR",
            "Roaddress1": "SURVEY NO 181, 182/2,  (OLD SURVEY NO.257/A and 256/A), VILLAGE and  P O THIRUKOILUR, CUDDALORE, KALLAKURICHI ROAD,   TIRUKOVILUR TALUK, SEVALAI ROAD, DIST VILLUPURAM  605757 ",
            "latitude": "11.9830703220",
            "longitude": "79.2158175560",
            "Ropincode": "605759",
            "Rocode": "TNF118",
            "Roid": "6603",
            "Territory": "VILUPPURAM"
        },
        {
            "Roname": "Vinchur",
            "State": "Maharashtra",
            "City": "Vinchur",
            "Roaddress1": "Gat No. 40/2/2 on SH 30, At Dahegaon Near Bharwas Phata, Tal Niphad, District Nashik, Maharashtra 422305",
            "latitude": "20.074836",
            "longitude": "74.272231",
            "Ropincode": "422305",
            "Rocode": "MHF451",
            "Roid": "7214",
            "Territory": "Nashik"
        },
        {
            "Roname": "AMBAD",
            "State": "Maharashtra",
            "City": "",
            "Roaddress1": "GATE NO 28 M JALNA BED HIGHWAY DAG/SURVEY NO. 28/1, ON SH-176, NEAR MILESTONE NO.178, AT PO. PARNER, TAL. AMBAD, DIST. JALNA AMBAD 431204",
            "latitude": "19.6393888890",
            "longitude": "75.8022777780",
            "Ropincode": "431204",
            "Rocode": "MHF028",
            "Roid": "6022",
            "Territory": "Jalna"
        },
        {
            "Roname": "DANKUNI",
            "State": "West Bengal",
            "City": "HOOGHLY",
            "Roaddress1": "Mouza-Kanajuli, Shibpur, Gurap, Taluka-Dankuni, Hooghly, West Bengal - 712303",
            "latitude": "22.976532",
            "longitude": "88.157032",
            "Ropincode": "712303",
            "Rocode": "WBF090",
            "Roid": "7196",
            "Territory": "HOOGHLY"
        },
        {
            "Roname": "NAGPUR CO3 NAGPUR",
            "State": "Maharashtra",
            "City": "NAGPUR",
            "Roaddress1": "PLOT NO 191 4A SHAIKH COLONOY MOTHER TERESSA MARG, TAKLI FEEDER ROAD, KOTOL ROAD POST OFFICE, NAGPUR 440013",
            "latitude": "21.1735530420",
            "longitude": "79.0706738390",
            "Ropincode": "440013",
            "Rocode": "MHC060",
            "Roid": "6780",
            "Territory": "Nagpur"
        },
        {
            "Roname": "CHANDRAPUR",
            "State": "Maharashtra",
            "City": "",
            "Roaddress1": "GAT NO 301/2, P.H.NO.30,THAK NO 92,OF MOUZA FULCHUR,GRAMPANCHAYAT BAPAT NAGAR NAGPUR ROAD CHANDRAPUR 442401",
            "latitude": "19.9597752210",
            "longitude": "79.2957624820",
            "Ropincode": "442402",
            "Rocode": "MHF064",
            "Roid": "6067",
            "Territory": "Chandrapur"
        },
        {
            "Roname": "MANDALWEDHA- CODO",
            "State": "Maharashtra",
            "City": "",
            "Roaddress1": "P4 CASE/AT GAT NO 1819, PANDHARPUR-VIJAPUR ROAD,MANGALWEDHA BIJAPUR ROAD, DIST SOLAPUR  DIST SOLAPUR  413305  ",
            "latitude": "17.5014444440",
            "longitude": "75.4563611110",
            "Ropincode": "413305",
            "Rocode": "MHF101",
            "Roid": "6146",
            "Territory": "SHOLAPUR"
        },
        {
            "Roname": "MHF145 PULGAON",
            "State": "Maharashtra",
            "City": "PULGAON",
            "Roaddress1": "Patni Petroleum Sy No.1/2, MouzeaNo 48, PH No:2 Mouza:Chitk, Deoli-Pulgaon Road Chikti, Tah.Deoli, Dist:Wardha Pulgaon-442302",
            "latitude": "20.7225245790",
            "longitude": "78.3389880140",
            "Ropincode": "442302",
            "Rocode": "MHF145",
            "Roid": "7049",
            "Territory": "Wardha"
        },
        {
            "Roname": "Deoli",
            "State": "Maharashtra",
            "City": "Deoli",
            "Roaddress1": "SR. NO. 525/1,MAUZA SALOD, HIRAPUR, NEAR KHADELWAL MIXTURE PLANT, SALOD, HIRAPUR, WARDHA, MAHARASHTRA 442001",
            "latitude": "20.68516962",
            "longitude": "78.53626050",
            "Ropincode": "442001",
            "Rocode": "MHF559",
            "Roid": "7228",
            "Territory": "Wardha"
        },
        {
            "Roname": "CK RD",
            "State": "West Bengal",
            "City": "",
            "Roaddress1": "SAKHISOLE,NEAR MONDALKUPI,, P.O:SALBONI, PASCHIM MIDNAPORE-721101, CHANDRAKONA ROAD",
            "latitude": "22.7226395330",
            "longitude": "87.33469834",
            "Ropincode": "721101",
            "Rocode": "WBF019",
            "Roid": "6129",
            "Territory": "PASCHIM MEDINIPUR"
        },
        {
            "Roname": "RANAGHAT NADIA FF",
            "State": "West Bengal",
            "City": "RANAGHAT",
            "Roaddress1": "NH-34, VILLAGE PATULI, PS  RANAGHAT, POST OFFICE BEGOPARA, DISTRICT: NADIA",
            "latitude": "23.1345213950",
            "longitude": "88.5655428610",
            "Ropincode": "741256",
            "Rocode": "WBF007",
            "Roid": "1024",
            "Territory": "Nadia"
        },
        {
            "Roname": "KALYANI EXPRESSWAY KOLKATA",
            "State": "West Bengal",
            "City": "",
            "Roaddress1": "J.L No: 17, Dag No: 1313 and 1310, Mouza: Bidyadharpur, Barackpore Kalyani Expressway, Ucchagarh, Bidyadharpur, PS - Jagatdal, 24 Paraganas(North) - 743127",
            "latitude": "22.7700679260",
            "longitude": "88.3678589990",
            "Ropincode": "743127",
            "Rocode": "WBF059",
            "Roid": "6738",
            "Territory": "24 PARGANAS"
        },
        {
            "Roname": "VADU",
            "State": "Gujarat",
            "City": "Baroda",
            "Roaddress1": "NR. VISHARAMPURA, PADRA JAMBUSAR ROAD SH-6, TALUKA PADRA  391421",
            "latitude": "22.1958333330",
            "longitude": "72.9719444440",
            "Ropincode": "391421",
            "Rocode": "GJF046",
            "Roid": "1203",
            "Territory": "Vadodara"
        },
        {
            "Roname": "BORSAD",
            "State": "Gujarat",
            "City": "BORSAD",
            "Roaddress1": "C/O  PATEL  DAHYABHAI KHUSHAKDAS OPP.TELEPHONE EXCHANGE, NR.AAND CHOKDI, BORSAD  ",
            "latitude": "22.4079020190",
            "longitude": "72.8984701210",
            "Ropincode": "388540",
            "Rocode": "GJF160",
            "Roid": "6196",
            "Territory": "Anand"
        },
        {
            "Roname": "FAZILKA FF",
            "State": "Punjab",
            "City": "FAZILKA",
            "Roaddress1": "RELIANCE PETRO MARKETING PVT LTD, FAZILKA-MALOUT ROAD, VILLAGE PANCHAN WALI. DISTT FEROZPUR.  FAZILKA.RETAILOUTLET@RELPETROMAIL.COM",
            "latitude": "30.4009166670",
            "longitude": "74.0570",
            "Ropincode": "152123",
            "Rocode": "PBF084",
            "Roid": "1166",
            "Territory": "FEROZEPUR"
        },
        {
            "Roname": "SURENDRANAGAR II",
            "State": "Gujarat",
            "City": "",
            "Roaddress1": "SH17, SURVEY NO. 233/3/P, NEAR MILE STONE NO. 126, SH NO. 17 SURENDRANAGAR MULI ROAD. RATANPAR, SURENDRANAGAR  363002",
            "latitude": "22.7183333330",
            "longitude": "71.6238888890",
            "Ropincode": "363001",
            "Rocode": "GJF074",
            "Roid": "1399",
            "Territory": "Surendranagar"
        },
        {
            "Roname": "HALVAD",
            "State": "Gujarat",
            "City": "Halvad",
            "Roaddress1": "R.S No. 2562/1 P, Near Bharat Petroleum Pump, Halvad Bye Pass, Halvad, Surendranagar",
            "latitude": "23.0127537450",
            "longitude": "71.1997707830",
            "Ropincode": "363330",
            "Rocode": "GJF075",
            "Roid": "6106",
            "Territory": "Surendranagar"
        },
        {
            "Roname": "CHOTILA",
            "State": "Gujarat",
            "City": "",
            "Roaddress1": "NH 8A,SURVEY NO. 10 PAIKI , APPROX. 60 MTRS. FROM CHAINAGE 167 (BETWEEN CHAINAGE 167-168) VILL:KUMBHARA , TA CHOTILA DI : SURENDRANAGAR     363520",
            "latitude": "22.4378333330",
            "longitude": "71.2214166670",
            "Ropincode": "363520",
            "Rocode": "GJT003",
            "Roid": "1075",
            "Territory": "Surendranagar"
        },
        {
            "Roname": "BADORA BETUL",
            "State": "Madhya Pradesh",
            "City": "BETUL",
            "Roaddress1": "BADORA CHAUK, NH69, SURVEY NO :29/2,VILLAGE:BATAMA DIST:BETUL  MP  ",
            "latitude": "21.8694642490",
            "longitude": "77.9211759170",
            "Ropincode": "460001",
            "Rocode": "MPF063",
            "Roid": "1642",
            "Territory": "Betul"
        },